"SALE.TYPE","SOLD.DATE","PROPERTY.TYPE","ADDRESS","CITY","STATE","ZIP","PRICE","BEDS","BATHS","LOCATION","SQUARE.FEET","LOT.SIZE","YEAR.BUILT","DAYS.ON.MARKET","X..SQUARE.FEET","HOA.MONTH","STATUS","NEXT.OPEN.HOUSE.START.TIME","NEXT.OPEN.HOUSE.END.TIME","URL..SEE.http...www.redfin.com.buy.a.home.comparative.market.analysis.FOR.INFO.ON.PRICING.","SOURCE","MLS.","FAVORITE","INTERESTED","LATITUDE","LONGITUDE","YEAR.DOWNLOADED","X"
"For-Sale-by-Owner Listing",NA,"Single Family Residential","5323 Kenrick Manor Ct","St. Louis","MO","63119",65005711,4,3,"Saint Louis",2112,12196,1983,62,30779,NA,"Active","","","http://www.redfin.com/MO/St-Louis/5323-Kenrick-Manor-Ct-63119/home/93525247","Fizber.com","4986470","N","Y",38.5831202,-90.3355495,2018,1242
"MLS Listing",NA,"Multi-Family (2-4 Unit)","1468 Union Blvd","St Louis","MO","63113",24900,5,2,"North",2436,4443,1898,72,10,NA,"Active","","","http://www.redfin.com/MO/St-Louis/1468-Union-Blvd-63113/home/93721600","MARIS","18084706","N","Y",38.6648628,-90.2681479,2018,43
"MLS Listing",NA,"Single Family Residential","1604 Tamarack","St Charles","MO","63301",229000,4,3,"Orchard Farm",1641,10977,1979,108,140,NA,"Active","","","http://www.redfin.com/MO/St-Charles/1604-Tamarack-Dr-63301/home/103322833","MARIS","18074974","N","Y",38.8191393,-90.4887109,2018,1400
"MLS Listing",NA,"Condo/Co-op","601 Westgate Ave Unit 601A","University City","MO","63130",200000,2,3,"University City",1195,NA,1928,126,167,459,"Active","","","http://www.redfin.com/MO/University-City/601-Westgate-Ave-63130/unit-601A/home/93327614","MARIS","18066342","N","Y",38.6559054,-90.3043244,2018,631
"MLS Listing",NA,"Condo/Co-op","4501 Lindell Unit 8G","St Louis","MO","63108",334999,2,2,"Central West",1311,NA,NA,80,256,934,"Active","","","http://www.redfin.com/MO/St-Louis/4501-Lindell-Blvd-63108/unit-8G/home/62733588","MARIS","18082432","N","Y",38.642951,-90.2581168,2018,886
"New Construction Plan",NA,"Single Family Residential","Aspen","Saint Charles","MO","63301",215900,3,2,"Manors at Charlestowne Place",NA,NA,NA,NA,NA,NA,"Active","","","http://www.redfin.com/MO/Saint-Charles/Manors-at-Charlestowne-Place/Aspen/home/147730163","NewHomeSource.com","Plan-71562420","N","Y",38.8329442,-90.4700212,2018,1513
"MLS Listing",NA,"Multi-Family (2-4 Unit)","5932 Hamilton Ter","St Louis","MO","63112",18500,2,2,"Central West",2024,2614,1915,151,9,NA,"Active","","","http://www.redfin.com/MO/St-Louis/5932-Hamilton-Ter-63112/home/93723387","MARIS","19069219","N","Y",38.6695534,-90.2867369,2020,1970
"MLS Listing",NA,"Condo/Co-op","7741 Kingsbury Blvd #32","Clayton","MO","63105",295000,2,3,"Clayton",1567,1725,1942,507,188,515,"Active","","","http://www.redfin.com/MO/St-Louis/7741-Kingsbury-Blvd-63105/unit-32/home/93325832","MARIS","17057897","N","Y",38.6562579,-90.3352019,2018,829
"MLS Listing",NA,"Single Family Residential","1472 Rowan Ave","St Louis","MO","63112",29000,3,1,"Central West",1125,3746,1908,121,26,NA,"Active","","","http://www.redfin.com/MO/St-Louis/1472-Rowan-Ave-63112/home/93756840","MARIS","19074364","N","Y",38.6722841,-90.2817114,2020,1955
"MLS Listing",NA,"Multi-Family (5+ Unit)","1322 Leroy Ave","St Louis","MO","63133",190000,NA,NA,"Normandy",6900,8625,1965,129,28,NA,"Active","","","http://www.redfin.com/MO/St-Louis/1322-Leroy-Ave-63133/home/169287637","MARIS","19074543","N","Y",38.6759385,-90.3102446,2020,1959
"MLS Listing",NA,"Single Family Residential","345 Par","St Louis","MO","63122",719900,5,4,"Kirkwood",2300,8625,NA,35,313,NA,"Active","","","http://www.redfin.com/MO/Kirkwood/345-Par-Ln-63122/home/93528786","MARIS","18092307","N","Y",38.592737,-90.399768,2018,1126
"MLS Listing",NA,"Condo/Co-op","4220 Mcpherson #102","St Louis","MO","63108",157500,2,2,"Central West",904,NA,1928,90,174,190,"Active","","","http://www.redfin.com/MO/St-Louis/4220-McPherson-Ave-63108/unit-102/home/62752792","MARIS","18080548","N","Y",38.6425777,-90.248028,2018,480
"New Construction Plan",NA,"Single Family Residential","The Huntbridge","Saint Louis","MO","63141",1824000,4,5,"Conway Estates",4584,NA,NA,NA,398,NA,"Active","","","http://www.redfin.com/MO/St-Louis/Conway-Estates/The-Huntbridge/home/169955255","NewHomeSource.com","Plan-111567124","N","Y",38.6493304,-90.4972698,2020,2127
"MLS Listing",NA,"Single Family Residential","4039 Greer Ave","St Louis","MO","63107",3900,5,2,"North",2500,3746,1906,127,2,NA,"Active","","","http://www.redfin.com/MO/St-Louis/4039-Greer-Ave-63107/home/93753943","MARIS","18070398","N","Y",38.6617413,-90.2288444,2018,3
"For-Sale-by-Owner Listing",NA,"Single Family Residential","2226 McNair Ave","St. Louis","MO","63104",495000,3,2.5,"Saint Louis",13800,18730,1910,252,36,NA,"Active","","","http://www.redfin.com/MO/St-Louis/2226-McNair-Ave-63104/home/145506458","Fizber.com","4960134","N","Y",38.6078011,-90.2175096,2018,1023
"MLS Listing",NA,"Condo/Co-op","150 Carondelet Plaza Rd #1403","Clayton","MO","63105",2195000,3,3,"Clayton",3346,348,2002,9,656,183,"Active","","","http://www.redfin.com/MO/St-Louis/150-Carondelet-Plz-63105/unit-1403/home/93317623","MARIS","20002777","N","Y",38.6478858,-90.3322292,2020,1630
"Redfin Data",NA,"Single Family Residential","5617 Botanical Ave","St. Louis","MO","63110",125000,1,1,"St. Louis",792,2614,1914,5,158,NA,"Pre On-Market","","","http://www.redfin.com/MO/St-Louis/5617-Botanical-Ave-63110/home/62759905","Coming Soon","23958","N","Y",38.6127999,-90.2823951,2018,323
"MLS Listing",NA,"Single Family Residential","7101 Morganford Rd","St Louis","MO","63116",119900,2,1,"South City",816,5158,1952,70,147,NA,"Active","","","http://www.redfin.com/MO/St-Louis/7101-Morganford-Rd-63116/home/93784543","MARIS","18086042","N","Y",38.5646739,-90.278754,2018,305
"MLS Listing",NA,"Condo/Co-op","420 Lake Ave #1","St Louis","MO","63108",180000,2,2,"Central West",1100,2091,1898,71,164,190,"Active","","","http://www.redfin.com/MO/St-Louis/420-Lake-Ave-63108/unit-1/home/93786046","MARIS","18070268","N","Y",38.6482495,-90.2700115,2018,569
"MLS Listing",NA,"Single Family Residential","6571 Murdoch Ave","St Louis","MO","63109",399900,3,3,"South City",2291,6229,1935,17,175,NA,"Active","","","http://www.redfin.com/MO/St-Louis/6571-Murdoch-Ave-63109/home/93779481","MARIS","18095007","N","Y",38.5885266,-90.3060557,2018,956
"MLS Listing",NA,"Single Family Residential","7015 Waterman Ave","St Louis","MO","63130",529500,3,3,"University City",2296,5881,1920,101,231,NA,"Active","","","http://www.redfin.com/MO/University-City/7015-Waterman-Ave-63130/home/62731683","MARIS","18076695","N","Y",38.6534006,-90.3153124,2018,1048
"MLS Listing",NA,"Single Family Residential","6715 Plateau Ave","St Louis","MO","63139",85500,2,1,"South City",672,5184,1949,64,127,NA,"Active","","","http://www.redfin.com/MO/St-Louis/6715-Plateau-Ave-63139/home/93773054","MARIS","18086580","N","Y",38.6235275,-90.3020198,2018,188
"MLS Listing",NA,"Multi-Family (2-4 Unit)","7030 Dartmouth Ave","St Louis","MO","63130",315000,4,2,"University City",NA,4008,1925,91,NA,NA,"Active","","","http://www.redfin.com/MO/University-City/7030-Dartmouth-Ave-63130/home/93469760","MARIS","19083617","N","Y",38.6620783,-90.3172957,2020,1937
"MLS Listing",NA,"Single Family Residential","0 Rosemont@provence","St Charles","MO","63301",327900,4,3,"St. Charles",2461,NA,NA,202,133,27,"Active","","","http://www.redfin.com/MO/St-Charles/0-Rosemont-provence-63301/home/113055642","MARIS","18048717","N","Y",38.80184,-90.482406,2018,1435
"MLS Listing",NA,"Single Family Residential","0 Audubon@provence","St Charles","MO","63301",285900,3,2,"St. Charles",1734,NA,NA,7,165,27,"Active","","","http://www.redfin.com/MO/St-Charles/0-Audubon-provence-63301/home/144483217","MARIS","18095350","N","Y",38.803447,-90.484826,2018,1255
"MLS Listing",NA,"Single Family Residential","5849 Cates Ave","St Louis","MO","63112",279500,6,4,"Central West",2998,9496,1899,197,93,NA,"Active","","","http://www.redfin.com/MO/St-Louis/5849-Cates-Ave-63112/home/93683201","MARIS","18049918","N","Y",38.6580993,-90.2879244,2018,801
"MLS Listing",NA,"Single Family Residential","124 N Taylor Ave","Kirkwood","MO","63122",875000,4,4,"Kirkwood",3428,13983,1867,30,255,NA,"Active","","","http://www.redfin.com/MO/Kirkwood/124-N-Taylor-Ave-63122/home/77106892","MARIS","18092967","N","Y",38.581977,-90.403638,2018,1159
"New Construction Plan",NA,"Single Family Residential","Denmark","Saint Charles","MO","63301",278900,3,2,"Provence, The Villages of",1746,NA,NA,NA,160,NA,"Active","","","http://www.redfin.com/MO/St-Charles/Provence-The-Villages-of/Denmark/home/148131690","NewHomeSource.com","Plan-71382373","N","Y",38.804399,-90.485759,2018,1535
"MLS Listing",NA,"Single Family Residential","3157 Duquette","St Charles","MO","63301",120000,4,3,"St. Charles",888,11805,1966,23,135,NA,"Active","","","http://www.redfin.com/MO/St-Charles/3157-Duquette-Dr-63301/home/103345215","MARIS","18094261","N","Y",38.8110667,-90.4963048,2018,1278
"MLS Listing",NA,"Single Family Residential","5433 Enright Ave","St Louis","MO","63112",325000,4,3,"Central West",2204,4704,1896,36,147,NA,"Active","","","http://www.redfin.com/MO/St-Louis/5433-Enright-Ave-63112/home/93761769","MARIS","18090013","N","Y",38.6548486,-90.2770993,2018,869
"MLS Listing",NA,"Condo/Co-op","303 Carlyle Lk","Creve Coeur","MO","63141",599000,3,3,"Parkway North",3127,6534,1993,168,192,825,"Active","","","http://www.redfin.com/MO/Creve-Coeur/303-Carlyle-Lake-Dr-63141/home/93473922","MARIS","19064026","N","Y",38.660154,-90.442711,2020,2127
"MLS Listing",NA,"Condo/Co-op","5866 Sunshine #108","St Louis","MO","63109",80000,2,1,"South City",788,NA,1948,89,102,165,"Active","","","http://www.redfin.com/MO/St-Louis/5866-Sunshine-Dr-63109/unit-108/home/93786757","MARIS","18080028","N","Y",38.5711464,-90.2964626,2018,179
"MLS Listing",NA,"Multi-Family (2-4 Unit)","5847 Goener Ave","St Louis","MO","63116",159900,4,6.5,"South City",2250,2788,1926,38,71,NA,"Active","","","http://www.redfin.com/MO/St-Louis/5847-Goener-Ave-63116/home/93777219","MARIS","18091719","N","Y",38.5756974,-90.2753395,2018,487
"MLS Listing",NA,"Single Family Residential","7515 Gannon Ave","St Louis","MO","63130",325000,3,3,"University City",1442,6273,1956,4,225,NA,"Active","","","http://www.redfin.com/MO/University-City/7515-Gannon-Ave-63130/home/62722187","MARIS","20001653","N","Y",38.6600846,-90.3333267,2020,1832
"MLS Listing",NA,"Single Family Residential","20 Magnolia Dr","St Louis","MO","63124",425000,3,2,"Ladue",1464,7200,1951,125,290,NA,"Active","January-6-2019 1:00 PM","January-6-2019 3:00 PM","http://www.redfin.com/MO/St-Louis/20-Magnolia-Dr-63124/home/93480586","MARIS","18067877","N","Y",38.6375344,-90.3871377,2018,977
"MLS Listing",NA,"Single Family Residential","40 Narragansett Dr","Ladue","MO","63124",315000,2,2,"Ladue",1630,10759,1967,62,193,NA,"Active","","","http://www.redfin.com/MO/St-Louis/40-Narragansett-Dr-63124/home/93470197","MARIS","18084499","N","Y",38.6569791,-90.356649,2018,856
"MLS Listing",NA,"Single Family Residential","3524 Ridgedale Ave","St Louis","MO","63121",36900,3,2,"Normandy",1476,8189,1929,129,25,NA,"Active","","","http://www.redfin.com/MO/St-Louis/3524-Ridgedale-Ave-63121/home/93433345","MARIS","19074816","N","Y",38.692711,-90.2830961,2020,1960
"MLS Listing",NA,"Single Family Residential","7029 Mardel Ave","St Louis","MO","63109",162900,3,2,"South City",1410,6020,1926,97,116,NA,"Active","","","http://www.redfin.com/MO/St-Louis/7029-Mardel-Ave-63109/home/93747924","MARIS","18061053","N","Y",38.59694,-90.3129786,2018,499
"MLS Listing",NA,"Single Family Residential","6 Lenox Pl","St Louis","MO","63108",872500,5,5,"Central West",4659,7349,1904,105,187,45,"Active","","","http://www.redfin.com/MO/St-Louis/6-Lenox-Pl-63108/home/93754337","MARIS","18075606","N","Y",38.6464508,-90.259382,2018,1156
"MLS Listing",NA,"Single Family Residential","7323 Devonshire Ave","Shrewsbury","MO","63119",359000,4,3,"Webster Groves",1810,6970,1950,63,198,NA,"Active","January-6-2019 12:30 PM","January-6-2019 3:00 PM","http://www.redfin.com/MO/St-Louis/7323-Devonshire-Ave-63119/home/93524678","MARIS","18087182","N","Y",38.5918667,-90.323483,2018,917
"MLS Listing",NA,"Multi-Family (2-4 Unit)","3205 Potomac","St Louis","MO","63118",60060,2,2,"Central East",2298,3398,1912,219,26,NA,"Active","","","http://www.redfin.com/MO/St-Louis/3205-Potomac-St-63118/home/62771766","MARIS","18042411","N","Y",38.593139,-90.237447,2018,126
"MLS Listing",NA,"Single Family Residential","12300 Ladue Woods Dr","Creve Coeur","MO","63141",595000,6,4,"Parkway North",3512,73499,1969,112,169,6,"Active","","","http://www.redfin.com/MO/Creve-Coeur/12300-Ladue-Woods-Dr-63141/home/93481393","MARIS","19077160","N","Y",38.648483,-90.45696,2020,2127
"MLS Listing",NA,"Single Family Residential","4317 Lindell Blvd Unit G","St Louis","MO","63108",175000,2,2,"Central West",1010,NA,1913,50,173,161,"Active","","","http://www.redfin.com/MO/St-Louis/4317-Lindell-Blvd-63108/unit-G/home/93725524","MARIS","18090279","N","Y",38.641509,-90.251165,2018,546
"MLS Listing",NA,"Single Family Residential","5118 Cologne Ave","St Louis","MO","63116",89900,2,1,"South City",720,3485,1911,66,125,NA,"Active","","","http://www.redfin.com/MO/St-Louis/5118-Cologne-Ave-63116/home/93761646","MARIS","18086534","N","Y",38.5811858,-90.2734162,2018,196
"MLS Listing",NA,"Single Family Residential","840 Marshall Ave","St Louis","MO","63119",249900,3,3,"Webster Groves",1600,6839,1921,258,156,NA,"Active","January-26-2020 01:00 PM","January-26-2020 03:00 PM","http://www.redfin.com/MO/Webster-Groves/840-Marshall-Ave-63119/home/62736284","MARIS","19034757","N","Y",38.6036199,-90.3356088,2020,1789
"MLS Listing",NA,"Single Family Residential","5649 Devonshire Ave","St Louis","MO","63109",142000,3,1,"South City",1239,3528,1925,49,115,NA,"Active","","","http://www.redfin.com/MO/St-Louis/5649-Devonshire-Ave-63109/home/93753138","MARIS","18067526","N","Y",38.5885936,-90.2898328,2018,424
"MLS Listing",NA,"Single Family Residential","728 Dallwood Dr","Crestwood","MO","63126",212000,3,3,"Lindbergh",1018,7405,1960,33,208,NA,"Active","January-6-2019 1:00 PM","January-6-2019 3:00 PM","http://www.redfin.com/MO/St-Louis/728-Dallwood-Dr-63126/home/93563708","MARIS","18092174","N","Y",38.5616529,-90.3896812,2018,651
"New Construction Plan",NA,"Single Family Residential","Geneva","Saint Charles","MO","63301",289900,3,2,"The Villages at Sandfort Farm",1627,NA,NA,NA,178,NA,"Active","","","http://www.redfin.com/MO/St-Charles/The-Villages-at-Sandfort-Farm/Geneva/home/148215015","NewHomeSource.com","Plan-71562204","N","Y",38.7956412,-90.5562885,2018,1530
"MLS Listing",NA,"Single Family Residential","3516 Brookside Crossing Dr","St Charles","MO","63301",339900,3,2,"Orchard Farm",1714,8712,NA,34,198,21,"Active","","","http://www.redfin.com/MO/St-Charles/3516-Brookside-Crossing-Dr-63301/home/148373145","MARIS","18090777","N","Y",38.827871,-90.4797865,2018,1302
"MLS Listing",NA,"Single Family Residential","4 Magnolia Dr","St Louis","MO","63124",474900,3,2,"Ladue",1750,10149,1951,42,271,2,"Active","","","http://www.redfin.com/MO/St-Louis/4-Magnolia-Dr-63124/home/62763207","MARIS","19089383","N","Y",38.638766,-90.3871777,2020,1910
"New Construction Plan",NA,"Single Family Residential","The Newport - 3 Car Garage","Saint Charles","MO","63301",284900,3,2,"Charlestowne Place",2274,NA,NA,NA,125,NA,"Active","","","http://www.redfin.com/MO/Saint-Charles/Charlestowne-Place/The-Newport-3-Car-Garage/home/144901418","NewHomeSource.com","Plan-71556602","N","Y",38.827639,-90.48084,2018,1544
"For-Sale-by-Owner Listing",NA,"Single Family Residential","7327 Vermont Ave","St. Louis","MO","63111",69999,2,1,"Saint Louis",1079,4825,1892,379,65,NA,"Active","","","http://www.redfin.com/MO/St-Louis/7327-Vermont-Ave-63111/home/93710905","Fizber.com","4944279","N","Y",38.5525248,-90.2608221,2018,151
"MLS Listing",NA,"Condo/Co-op","4 Delcrest Ct #204","St Louis","MO","63124",110000,2,1,"University City",1100,4312,1957,100,100,238,"Active","","","http://www.redfin.com/MO/St-Louis/4-Delcrest-Ct-63124/unit-204/home/93470665","MARIS","18073367","N","Y",38.6580711,-90.3528667,2018,273
"MLS Listing",NA,"Single Family Residential","2010 Oregon Ave","St Louis","MO","63104",155000,3,2,"Central East",2180,3441,1890,55,71,NA,"Active","","","http://www.redfin.com/MO/St-Louis/2010-Oregon-Ave-63104/home/93690058","MARIS","18088353","N","Y",38.6124371,-90.2270229,2018,474
"MLS Listing",NA,"Single Family Residential","7448 Morganford","St Louis","MO","63116",129900,2,1,"South City",912,NA,NA,71,142,NA,"Active","","","http://www.redfin.com/MO/St-Louis/7448-Morganford-Rd-63116/home/93784397","MARIS","18084711","N","Y",38.5608397,-90.2816033,2018,371
"MLS Listing",NA,"Single Family Residential","1008 Picardy Ln","St Charles","MO","63301",269900,4,3,"St. Charles",1904,15899,1975,97,142,NA,"Active","","","http://www.redfin.com/MO/St-Charles/1008-Picardy-Ln-63301/home/62729303","MARIS","18078557","N","Y",38.814844,-90.5024196,2018,1386
"MLS Listing",NA,"Single Family Residential","6137 Westminster","St Louis","MO","63112",240000,6,2,"Central West",2363,4356,1907,164,102,NA,"Active","","","http://www.redfin.com/MO/St-Louis/6137-Westminster-Pl-63112/home/93760468","MARIS","18059501","N","Y",38.6536359,-90.2977071,2018,738
"MLS Listing",NA,"Condo/Co-op","6240 Sunshine Dr Unit 2G","St Louis","MO","63109",199900,2,2,"South City",1588,NA,2004,27,126,388,"Active","","","http://www.redfin.com/MO/St-Louis/6240-Sunshine-Dr-63109/unit-2G/home/62708875","MARIS","18093476","N","Y",38.5728907,-90.2998768,2018,623
"MLS Listing",NA,"Single Family Residential","2210 Richert Pl","St Louis","MO","63143",173000,2,1,"South City",1236,3833,1923,2,140,NA,"Active","January-26-2020 01:00 PM","January-26-2020 03:00 PM","http://www.redfin.com/MO/St-Louis/2210-Richert-Pl-63143/home/93741088","MARIS","20003589","N","Y",38.6177945,-90.3097714,2020,1609
"MLS Listing",NA,"Single Family Residential","6519 Delor St","St Louis","MO","63109",359900,3,2,"South City",1876,7623,1953,51,192,NA,"Active","","","http://www.redfin.com/MO/St-Louis/6519-Delor-St-63109/home/93779730","MARIS","18089754","N","Y",38.585504,-90.3048238,2018,919
"MLS Listing",NA,"Single Family Residential","4405 Itaska","St Louis","MO","63116",50000,2,1,"South City",775,3659,1913,150,65,NA,"Active","","","http://www.redfin.com/MO/St-Louis/4405-Itaska-St-63116/home/93764133","MARIS","18063583","N","Y",38.5840908,-90.2694318,2018,101
"MLS Listing",NA,"Single Family Residential","5204 Cabanne Ave","St Louis","MO","63113",159900,5,4,"North",1688,3790,1901,225,95,NA,"Active","","","http://www.redfin.com/MO/St-Louis/5204-Cabanne-Ave-63113/home/93745396","MARIS","18039953","N","Y",38.656621,-90.270317,2018,488
"MLS Listing",NA,"Single Family Residential","18 Oakleigh Ln","Ladue","MO","63124",1125000,5,6,"Ladue",4249,45956,1937,80,265,29,"Active","January-6-2019 1:00 PM","January-6-2019 3:00 PM","http://www.redfin.com/MO/St-Louis/18-Oakleigh-Ln-63124/home/93471830","MARIS","18076419","N","Y",38.660634,-90.381685,2018,1184
"MLS Listing",NA,"Single Family Residential","4985 Nagel Ave","St Louis","MO","63109",145000,2,2,"South City",1350,3637,1925,61,107,NA,"Active","","","http://www.redfin.com/MO/St-Louis/4985-Nagel-Ave-63109/home/93758292","MARIS","18087817","N","Y",38.5698473,-90.2896293,2018,429
"MLS Listing",NA,"Single Family Residential","307 N Laclede Station Rd","St Louis","MO","63119",194900,3,2,"Webster Groves",1154,11195,1953,98,169,NA,"Active","","","http://www.redfin.com/MO/Webster-Groves/307-N-Laclede-Station-Rd-63119/home/147296291","MARIS","18075997","N","Y",38.594568,-90.332566,2018,607
"MLS Listing",NA,"Single Family Residential","5120 Lode Ave","St Louis","MO","63123",139900,3,2,"Bayless",840,3615,1968,120,167,NA,"Active","","","http://www.redfin.com/MO/Affton/5120-Lode-Ave-63123/home/69079789","MARIS","18072170","N","Y",38.5600706,-90.3074918,2018,419
"MLS Listing",NA,"Multi-Family (2-4 Unit)","3714 Cambridge Ave Unit A-B, R","St Louis","MO","63143",350000,3,3,"Maplewood-Rchmnd Hts",NA,8102,NA,11,NA,NA,"Active","","","http://www.redfin.com/MO/Maplewood/3714-Cambridge-Ave-63143/unit-A-B-R/home/170270929","MARIS","20002383","N","Y",38.6032634,-90.3238705,2020,1634
"MLS Listing",NA,"Single Family Residential","3225 Portis Ave","St Louis","MO","63116",200000,2,1,"South City",1176,4400,1911,44,170,NA,"Active","","","http://www.redfin.com/MO/St-Louis/3225-Portis-Ave-63116/home/93756461","MARIS","18090761","N","Y",38.6012287,-90.2652724,2018,635
"MLS Listing",NA,"Single Family Residential","7642 Williams Ave","St Louis","MO","63143",199000,3,1,"Maplewood-Rchmnd Hts",1710,6360,1922,155,116,NA,"Active","","","http://www.redfin.com/MO/Maplewood/7642-Williams-Ave-63143/home/93497294","MARIS","18062462","N","Y",38.6211296,-90.3252664,2018,618
"MLS Listing",NA,"Single Family Residential","1331 Shorewinds Trl","St Charles","MO","63303",400000,4,3,"Francis Howell",2587,13068,2007,56,155,NA,"Active","","","http://www.redfin.com/MO/St-Charles/1331-Shorewind-Trl-63303/home/103256231","MARIS","18088157","N","Y",38.7675299,-90.5146148,2018,1335
"MLS Listing",NA,"Vacant Land","545 Leonard Tbb","Webster Groves","MO","63119",125000,NA,NA,"Webster Groves",NA,44431,NA,164,NA,NA,"Active","","","http://www.redfin.com/MO/St-Louis/545-Leonard-Ave-63119/home/147674137","MARIS","19059513","N","Y",38.6025933,-90.3719253,2020,1766
"MLS Listing",NA,"Multi-Family (2-4 Unit)","6617 Chamberlain Ave","St Louis","MO","63130",131900,NA,NA,"University City",NA,11326,1900,65,NA,NA,"Active","","","http://www.redfin.com/MO/University-City/6617-Chamberlain-Ave-63130/home/93456039","MARIS","18087068","N","Y",38.6638774,-90.3048925,2018,348
"MLS Listing",NA,"Multi-Family (2-4 Unit)","","St Louis","MO","63111",79900,4,2,"",2294,3655,1924,134,35,NA,"Active","","","http://www.redfin.com/MO/St-Louis/Undisclosed-address-63111/home/147466203","MARIS","18067675","N","Y",38.5635304,-90.2479232,2018,175
"MLS Listing",NA,"Condo/Co-op","7939 Royal Arms Ct #4","St Louis","MO","63123",97000,2,1,"Lindbergh",768,2178,1968,150,126,240,"Active","","","http://www.redfin.com/MO/St-Louis/7939-Royal-Arms-Ct-63123/unit-4/home/93562340","MARIS","18063562","N","Y",38.5567937,-90.3605623,2018,223
"New Construction Home",NA,"Single Family Residential","3425 Broad St","Saint Charles","MO","63301",319900,4,2.5,"New Town",NA,NA,2018,167,NA,NA,"Active","","","http://www.redfin.com/MO/St-Charles/3425-Broad-St-63301/home/146335556","NewHomeSource.com","1477937","N","Y",38.8381,-90.5052,2018,1490
"MLS Listing",NA,"Single Family Residential","964 Cottontail Ln","St Charles","MO","63303",299900,4,4,"Francis Howell North",2376,10890,1998,1,126,8,"Active","","","http://www.redfin.com/MO/St-Charles/964-Cottontail-Ln-63303/home/62736694","MARIS","19000380","N","Y",38.7269672,-90.574014,2018,1243
"MLS Listing",NA,"Single Family Residential","3725 Humphrey St","St Louis","MO","63116",255000,4,2,"South City",1824,4356,1905,90,140,NA,"Active","","","http://www.redfin.com/MO/St-Louis/3725-Humphrey-St-63116/home/93700067","MARIS","18079613","N","Y",38.598758,-90.2463503,2018,765
"MLS Listing",NA,"Single Family Residential","4596 Aldine Ave","St Louis","MO","63113",100000,4,2,"North",1616,4787,1914,66,62,NA,"Active","","","http://www.redfin.com/MO/St-Louis/4596-Aldine-Ave-63113/home/93718780","MARIS","18086681","N","Y",38.6598227,-90.2508013,2018,242
"MLS Listing",NA,"Single Family Residential","3730 Utah Pl","St Louis","MO","63116",515000,5,4,"South City",3045,9892,1909,101,169,NA,"Active","","","http://www.redfin.com/MO/St-Louis/3730-N-Utah-Pl-63116/home/93699916","MARIS","18075511","N","Y",38.5971495,-90.2466669,2018,1057
"MLS Listing",NA,"Single Family Residential","18 Lynnbrook Rd","Frontenac","MO","63131",1466900,4,4,"Ladue",4130,43996,NA,152,355,NA,"Active","","","http://www.redfin.com/MO/Frontenac/18-Lynnbrook-Rd-63131/home/93480108","MARIS","19063726","N","Y",38.6373118,-90.4112295,2020,1758
"MLS Listing",NA,"Single Family Residential","0 Chateau Du Bois","Lake St Louis","MO","63367",725000,5,5,"Wentzville-Timberland",3600,NA,NA,1437,201,17,"Active","","","http://www.redfin.com/MO/Lake-St-Louis/0-Chateau-Du-Bois-63367/home/62696758","MARIS","14061903","N","Y",38.653623,-90.394575,2018,1128
"MLS Listing",NA,"Single Family Residential","7215 Dale Ave","Richmond Heights","MO","63117",158000,3,1,"Maplewood-Rchmnd Hts",783,7153,1920,22,202,NA,"Active","","","http://www.redfin.com/MO/Richmond-Heights/7215-Dale-Ave-63117/home/93487308","MARIS","20000035","N","Y",38.6273552,-90.3113095,2020,1657
"MLS Listing",NA,"Single Family Residential","7923 Lafon Pl","University City","MO","63130",749900,4,5,"University City",3143,14505,2003,4,239,NA,"Active","","","http://www.redfin.com/MO/University-City/7923-Lafon-Pl-63130/home/93470823","MARIS","20006640","N","Y",38.6577525,-90.3428565,2020,1826
"MLS Listing",NA,"Single Family Residential","1488 Gettysburg Lndg","St Charles","MO","63303",384900,4,4,"Francis Howell North",3001,15812,1983,62,128,18,"Active","","","http://www.redfin.com/MO/St-Charles/1488-Gettysburg-Lndg-63303/home/62693000","MARIS","18087978","N","Y",38.7448757,-90.5546293,2018,1339
"MLS Listing",NA,"Single Family Residential","5468 Oleatha Ave","St Louis","MO","63139",184900,2,1,"South City",1050,4792,1950,33,176,NA,"Active","","","http://www.redfin.com/MO/St-Louis/5468-Oleatha-Ave-63139/home/93780785","MARIS","18091060","N","Y",38.5965127,-90.2840782,2018,579
"MLS Listing",NA,"Multi-Family (2-4 Unit)","3638 Meramec","St Louis","MO","63116",69000,5,2,"South City",2570,3790,1914,101,27,NA,"Active","","","http://www.redfin.com/MO/St-Louis/3638-Meramec-St-63116/home/93705300","MARIS","18076465","N","Y",38.5812727,-90.2455952,2018,144
"MLS Listing",NA,"Condo/Co-op","7346 Forsyth Blvd #2","St Louis","MO","63105",425000,2,2,"University City",1630,1742,1941,12,261,425,"Active","","","http://www.redfin.com/MO/St-Louis/7346-Forsyth-Blvd-63105/unit-2/home/62740328","MARIS","20005834","N","Y",38.648191,-90.3271165,2020,1860
"MLS Listing",NA,"Single Family Residential","2357 De La Croix Ave","St Charles","MO","63301",484556,3,3,"St. Charles",2804,12998,NA,131,173,NA,"Active","","","http://www.redfin.com/MO/St-Charles/2357-De-La-Croix-Ave-63301/home/143243525","MARIS","18069596","N","Y",38.806506,-90.4858763,2018,1413
"MLS Listing",NA,"Condo/Co-op","1618 E Swan","Brentwood","MO","63144",158900,2,1,"Brentwood",1040,3093,1986,6,153,214,"Active","","","http://www.redfin.com/MO/St-Louis/1618-E-Swan-Cir-63144/home/93489445","MARIS","18096243","N","Y",38.62605,-90.3490761,2018,482
"MLS Listing",NA,"Multi-Family (5+ Unit)","7004 Pennsylvania Ave","St Louis","MO","63111",159900,NA,NA,"South City",NA,7579,1892,114,NA,NA,"Active","","","http://www.redfin.com/MO/St-Louis/7004-Pennsylvania-Ave-63111/home/93710119","MARIS","18071722","N","Y",38.5520931,-90.2540647,2018,490
"New Construction Plan",NA,"Single Family Residential","Audubon","Saint Charles","MO","63301",285900,3,2,"Villages of Provence",1734,NA,NA,NA,165,NA,"Active","","","http://www.redfin.com/MO/Saint-Charles/Villages-of-Provence/Audubon/home/144225806","NewHomeSource.com","Plan-71446350","N","Y",38.803643,-90.482452,2018,1549
"For-Sale-by-Owner Listing",NA,"Condo/Co-op","3832 Shaw Blvd","St. Louis","MO","63110",141500,2,2,"Saint Louis",1255,NA,1914,209,113,NA,"Active","","","http://www.redfin.com/MO/St-Louis/3832-Shaw-Blvd-63110/unit-B/home/93786112","Fizber.com","4965862","N","Y",38.615238,-90.243986,2018,423
"MLS Listing",NA,"Single Family Residential","6039 Wanda Ave","St Louis","MO","63116",124900,2,1,"South City",988,4051,1926,63,126,NA,"Active","","","http://www.redfin.com/MO/St-Louis/6039-Wanda-Ave-63116/home/69220467","MARIS","18086856","N","Y",38.5745671,-90.2737973,2018,322
"MLS Listing",NA,"Multi-Family (2-4 Unit)","4022 Itaska","St Louis","MO","63116",125000,2,2,"South City",1334,4008,1930,5,94,NA,"Active","","","http://www.redfin.com/MO/St-Louis/4022-Itaska-St-63116/home/93778481","MARIS","18096212","N","Y",38.5797682,-90.2606463,2018,356
"MLS Listing",NA,"Single Family Residential","3 Edgewood Rd","Ladue","MO","63124",2295000,5,6,"Ladue",6973,88862,1930,237,329,NA,"Active","","","http://www.redfin.com/MO/St-Louis/3-Edgewood-Rd-63124/home/62691683","MARIS","19040326","N","Y",38.6506514,-90.3653554,2020,1783
"MLS Listing",NA,"Vacant Land","102 Reasnor Ave","Webster Groves","MO","63119",29900,NA,NA,"Webster Groves",NA,6316,NA,226,NA,NA,"Active","","","http://www.redfin.com/MO/Webster-Groves/102-Reasnor-Ave-63119/home/145751509","MARIS","18040551","N","Y",38.607023,-90.357704,2018,57
"MLS Listing",NA,"Single Family Residential","3525 Crittenden St","St Louis","MO","63118",399900,6,2,"Central East",2967,6360,1917,83,135,NA,"Active","","","http://www.redfin.com/MO/St-Louis/3525-Crittenden-St-63118/home/93692731","MARIS","18075614","N","Y",38.6035863,-90.2406464,2018,959
"MLS Listing",NA,"Multi-Family (2-4 Unit)","5345 Wells Ave","St Louis","MO","63112",52000,2,1,"Central West",2254,6621,1906,39,23,NA,"Active","","","http://www.redfin.com/MO/St-Louis/5345-Wells-Ave-63112/home/93721567","MARIS","19089740","N","Y",38.6655685,-90.2701561,2020,1906
"MLS Listing",NA,"Multi-Family (5+ Unit)","5887 Page Blvd","St Louis","MO","63112",250000,NA,NA,"Central West",9060,6098,1910,111,28,NA,"Active","","","http://www.redfin.com/MO/SAINT-LOUIS/5887-PAGE-BLVD-63112/home/93786305","MARIS","19078414","N","Y",38.668516,-90.285582,2020,1950
"For-Sale-by-Owner Listing",NA,"Single Family Residential","3729 Courtois St","St. Louis","MO","63123",96500,3,1,"Saint Louis",768,5631,1951,194,126,NA,"Active","","","http://www.redfin.com/MO/St-Louis/3729-Courtois-St-63123/home/93712322","Fizber.com","4968017","N","Y",38.5543469,-90.2734671,2018,222
"MLS Listing",NA,"Multi-Family (2-4 Unit)","6915 Alabama Ave","St Louis","MO","63111",87500,2,1,"South City",2496,3964,1928,497,35,NA,"Active","","","http://www.redfin.com/MO/St-Louis/6915-Alabama-Ave-63111/home/93710200","MARIS","17068669","N","Y",38.5556936,-90.2584285,2018,191
"MLS Listing",NA,"Single Family Residential","3586 N New Town Ave","St Charles","MO","63301",210000,2,4,"Orchard Farm",1224,1742,2004,69,172,70,"Active","","","http://www.redfin.com/MO/St-Charles/3586-N-New-Town-Ave-63301/home/103248187","MARIS","18084288","N","Y",38.8374809,-90.495371,2018,1350
"New Construction Plan",NA,"Single Family Residential","Somerville","Saint Charles","MO","63301",231900,3,2,"New Town",NA,NA,NA,NA,NA,NA,"Active","","","http://www.redfin.com/MO/Saint-Charles/New-Town/Somerville/home/144964383","NewHomeSource.com","Plan-71347435","N","Y",38.8381,-90.5052,2018,1562
"MLS Listing",NA,"Single Family Residential","9625 Ladue Rd","Ladue","MO","63124",7400000,5,9,"Ladue",8332,348480,1925,202,888,NA,"Active","","","http://www.redfin.com/MO/St-Louis/9625-Ladue-Rd-63124/home/93472388","MARIS","18048382","N","Y",38.654654,-90.389111,2018,1241
"MLS Listing",NA,"Single Family Residential","1 Tbb-dylan 4 At Provence","St Charles","MO","63301",279900,4,3,"St. Charles",2031,NA,NA,71,138,27,"Active","","","http://www.redfin.com/MO/St-Charles/1-Tbb-dylan-4-At-Provence-63301/home/147814785","MARIS","18082052","N","Y",38.803033,-90.485799,2018,1357
"MLS Listing",NA,"Single Family Residential","6722 Minnesota Ave","St Louis","MO","63111",40000,1,1,"South City",672,2439,1890,20,60,NA,"Active","","","http://www.redfin.com/MO/St-Louis/6722-Minnesota-Ave-63111/home/93710496","MARIS","18094526","N","Y",38.5545878,-90.2529005,2018,79
"MLS Listing",NA,"Single Family Residential","346 Woodmere Dr","St Charles","MO","63303",515000,6,4,"Francis Howell North",3096,23958,1990,22,166,8,"Active","","","http://www.redfin.com/MO/St-Charles/346-Woodmere-Dr-63303/home/103300999","MARIS","18093881","N","Y",38.7232599,-90.5534894,2018,1276
"MLS Listing",NA,"Single Family Residential","8121 Gannon Ave","University City","MO","63130",425000,5,4,"University City",2603,NA,1941,187,163,9,"Active","","","http://www.redfin.com/MO/St-Louis/8121-Gannon-Ave-63130/home/93470931","MARIS","19058155","N","Y",38.661491,-90.3475436,2020,1985
"MLS Listing",NA,"Single Family Residential","31 Dunleith","St Louis","MO","63124",698500,4,4,"Ladue",2810,43560,1976,66,249,NA,"Active","","","http://www.redfin.com/MO/St-Louis/31-Dunleith-Dr-63124/home/93501122","MARIS","18084830","N","Y",38.6206513,-90.4034897,2018,1121
"MLS Listing",NA,"Single Family Residential","6206 Lorraine Ave","St Louis","MO","63121",29900,2,1,"Normandy",875,4356,NA,12,34,NA,"Active","","","http://www.redfin.com/MO/St-Louis/6206-Lorraine-Ave-63121/home/93443906","MARIS","20005488","N","Y",38.6866588,-90.2803649,2020,1862
"MLS Listing",NA,"Single Family Residential","2737 Osceola","St Louis","MO","63111",99900,2,2,"South City",850,2657,1928,150,118,NA,"Active","","","http://www.redfin.com/MO/St-Louis/2737-Osceola-St-63111/home/93705781","MARIS","18063629","N","Y",38.5760089,-90.2327662,2018,231
"MLS Listing",NA,"Condo/Co-op","4954 Lindell Blvd Unit 8-E","St Louis","MO","63108",319000,2,2,"Central West",2700,NA,1911,108,118,1145,"Active","","","http://www.redfin.com/MO/St-Louis/4954-Lindell-Blvd-63108/unit-8-E/home/147106967","MARIS","18067703","N","Y",38.6433749,-90.2638109,2018,860
"MLS Listing",NA,"Condo/Co-op","4206 Maryland Ave","St Louis","MO","63108",179900,2,2,"Central West",1628,NA,1905,120,111,225,"Active","","","http://www.redfin.com/MO/St-Louis/4206-Maryland-Ave-63108/home/146977962","MARIS","18071760","N","Y",38.6414932,-90.2483613,2018,567
"MLS Listing",NA,"Single Family Residential","502 Venneman Ave","Glendale","MO","63122",750000,4,3,"Kirkwood",2562,NA,NA,55,293,NA,"Active","","","http://www.redfin.com/MO/St-Louis/502-Venneman-Ave-63122/home/93529129","MARIS","18089374","N","Y",38.5902278,-90.3888777,2018,1137
"MLS Listing",NA,"Single Family Residential","4361 Washington Blvd","St Louis","MO","63108",529900,4,4,"Central West",2600,4225,NA,70,204,NA,"Active","","","http://www.redfin.com/MO/St-Louis/4361-Washington-Blvd-63108/home/103203273","MARIS","18086135","N","Y",38.647955,-90.250232,2018,1066
"MLS Listing",NA,"Single Family Residential","5155 Goethe Ave","St Louis","MO","63109",129900,2,1,"South City",1050,4835,1926,85,124,NA,"Active","January-6-2019 1:00 PM","January-6-2019 3:00 PM","http://www.redfin.com/MO/St-Louis/5155-Goethe-Ave-63109/home/93769453","MARIS","18081631","N","Y",38.5799537,-90.2840612,2018,341
"MLS Listing",NA,"Single Family Residential","3504 Brookside Crossing Dr","St Charles","MO","63301",259900,3,2,"Orchard Farm",1594,8712,NA,77,163,21,"Active","","","http://www.redfin.com/MO/Saint-Charles/3504-Brookside-Crossing-Dr-63301/home/147707732","MARIS","18083028","N","Y",38.8275097,-90.4803877,2018,1365
"New Construction Plan",NA,"Single Family Residential","Lansford - Manor","Affton","MO","63123",278900,3,2,"The Manors at MacKenzie Valley",1302,NA,NA,NA,214,NA,"Active","","","http://www.redfin.com/MO/St-Louis/The-Manors-at-MacKenzie-Valley/Lansford-Manor/home/144477821","NewHomeSource.com","Plan-61458905","N","Y",38.5594322,-90.3232119,2018,799
"MLS Listing",NA,"Single Family Residential","16 Twin Oaks","St Charles","MO","63303",225000,4,3,"Francis Howell North",2400,17555,1968,54,94,NA,"Active","","","http://www.redfin.com/MO/St-Charles/16-Twin-Oaks-Dr-63303/home/103285375","MARIS","18089451","N","Y",38.7642893,-90.5169772,2018,1330
"MLS Listing",NA,"Condo/Co-op","2120 Waverly Unit A","St Louis","MO","63104",104900,1,1,"Central East",733,NA,NA,66,143,170,"Active","","","http://www.redfin.com/MO/St-Louis/2120-Waverly-Pl-63104/unit-A/home/146878474","MARIS","18086853","N","Y",38.612364,-90.217641,2018,248
"MLS Listing",NA,"Condo/Co-op","5696 Kingsbury #302","St Louis","MO","63112",83500,1,1,"Central West",680,NA,1917,300,123,222,"Active","","","http://www.redfin.com/MO/St-Louis/5696-Kingsbury-Ave-63112/unit-302/home/93680437","MARIS","19026998","N","Y",38.6510831,-90.2844373,2020,2004
"MLS Listing",NA,"Condo/Co-op","1622 Redbird","Brentwood","MO","63144",154900,2,1,"Brentwood",945,2831,1951,43,164,187,"Active","","","http://www.redfin.com/MO/Brentwood/1622-Redbird-Cv-63144/home/93488685","MARIS","18091123","N","Y",38.6271568,-90.3536329,2018,470
"MLS Listing",NA,"Single Family Residential","6150 W Park Ave","St Louis","MO","63139",239900,4,2,"South City",864,6625,1958,56,278,NA,"Active","","","http://www.redfin.com/MO/St-Louis/6150-W-Park-Ave-63139/home/93726324","MARIS","18088873","N","Y",38.6266139,-90.289574,2018,732
"MLS Listing",NA,"Single Family Residential","916 Trinity Ave","University City","MO","63130",399900,4,3,"University City",2310,9365,1924,50,173,NA,"Active","","","http://www.redfin.com/MO/University-City/916-Trinity-Ave-63130/home/93469946","MARIS","18090261","N","Y",38.6609911,-90.310318,2018,958
"MLS Listing",NA,"Single Family Residential","1230 S Main St","St Charles","MO","63301",499000,2,4,"St. Charles",2632,3049,2003,129,190,475,"Active","","","http://www.redfin.com/MO/St-Charles/1230-S-Main-St-63301/unit-1D/home/103245264","MARIS","18070000","N","Y",38.7702625,-90.4874936,2018,1412
"MLS Listing",NA,"Single Family Residential","9007 Pine Ave","Brentwood","MO","63144",239900,3,1,"Brentwood",1378,7405,1941,76,174,NA,"Active","","","http://www.redfin.com/MO/Brentwood/9007-Pine-Ave-63144/home/93488231","MARIS","19083320","N","Y",38.6228989,-90.3522325,2020,1695
"MLS Listing",NA,"Single Family Residential","1 Tbb - Highland @ Provence","St Charles","MO","63301",247900,2,2,"St. Charles",1492,NA,NA,834,166,100,"Active","","","http://www.redfin.com/MO/St-Charles/1-Tbb-Highland-Provence-63301/home/144635096","MARIS","16066786","N","Y",38.801161,-90.488192,2018,1462
"MLS Listing",NA,"Single Family Residential","1513 Heritage Lndg","Unincorporated","MO","63303",279900,4,4,"Francis Howell North",2310,13416,1976,161,121,18,"Active","","","http://www.redfin.com/MO/St-Peters/1513-Heritage-Lndg-63303/home/79930564","MARIS","18051195","N","Y",38.749872,-90.549563,2018,1423
"MLS Listing",NA,"Condo/Co-op","8025 Maryland Ave Unit 13E","St Louis","MO","63105",1425000,3,4,"Clayton",2414,697,2007,10,590,1325,"Active","","","http://www.redfin.com/MO/Clayton/8025-Maryland-Ave-63105/unit-13E/home/93327396","MARIS","20002101","N","Y",38.652392,-90.340466,2020,1632
"For-Sale-by-Owner Listing",NA,"Single Family Residential","1440 Santa Margarita St","Saint Charles","MO","63303",29000,2,1,"Saint Charles",980,NA,2001,250,30,NA,"Active","","","http://www.redfin.com/MO/Saint-Charles/1440-Santa-Margarita-St-63303/home/145532361","Fizber.com","4960429","N","Y",38.7637261,-90.5353647,2018,1481
"MLS Listing",NA,"Condo/Co-op","15 Topton Way Unit 2C","Clayton","MO","63105",985000,2,3,"Clayton",2242,NA,2001,7,439,525,"Active","","","http://www.redfin.com/MO/Clayton/15-Topton-Way-63105/unit-2C/home/93631315","MARIS","20003338","N","Y",38.650101,-90.3447149,2020,1618
"MLS Listing",NA,"Single Family Residential","4323 Gibson Ave","St Louis","MO","63110",210000,2,2,"South City",1584,3267,1892,71,133,NA,"Active","","","http://www.redfin.com/MO/St-Louis/4323-Gibson-Ave-63110/home/93751324","MARIS","18084741","N","Y",38.628474,-90.2551281,2018,648
"MLS Listing",NA,"Vacant Land","9710 Litzsinger Rd","Ladue","MO","63124",1490000,NA,NA,"Ladue",NA,206474,NA,248,NA,NA,"Active","","","http://www.redfin.com/MO/St-Louis/9710-Litzsinger-Rd-63124/home/62776192","MARIS","19036125","N","Y",38.621343,-90.377915,2020,1785
"MLS Listing",NA,"Single Family Residential","2342 Albion Pl","St Louis","MO","63104",299000,4,3,"Central East",3045,5097,1891,91,98,NA,"Active","","","http://www.redfin.com/MO/St-Louis/2342-Albion-Pl-63104/home/70078076","MARIS","18080304","N","Y",38.6167348,-90.2199639,2018,833
"MLS Listing",NA,"Single Family Residential","9837 Hudson Ave","St Louis","MO","63119",622410,4,4,"Webster Groves",2600,6708,NA,90,239,42,"Active","","","http://www.redfin.com/MO/St-Louis/9837-Hudson-Ave-63119/home/93499882","MARIS","18080709","N","Y",38.6090145,-90.3756459,2018,1101
"MLS Listing",NA,"Single Family Residential","3 Girard Dr","Webster Groves","MO","63119",259900,3,2,"Webster Groves",1398,8494,1947,129,186,NA,"Active","January-6-2019 12:00 PM","January-6-2019 2:00 PM","http://www.redfin.com/MO/Webster-Groves/3-Girard-Dr-63119/home/93540973","MARIS","18069771","N","Y",38.567416,-90.34808,2018,770
"MLS Listing",NA,"Single Family Residential","5083 Westminster","St Louis","MO","63108",675000,5,4,"Central West",3089,7492,1903,77,219,50,"Active","","","http://www.redfin.com/MO/St-Louis/5083-Westminster-Pl-63108/home/93633504","MARIS","18083079","N","Y",38.6499158,-90.2669375,2018,1117
"MLS Listing",NA,"Single Family Residential","39 Hanley Downs Dr","St Louis","MO","63117",399900,3,3,"Brentwood",1508,8843,1954,77,265,21,"Active","","","http://www.redfin.com/MO/St-Louis/39-Hanley-Downs-63117/home/93490321","MARIS","19079536","N","Y",38.6308579,-90.3352564,2020,1698
"MLS Listing",NA,"Condo/Co-op","7743 Kingsbury Blvd #11","St Louis","MO","63105",365000,2,3,"Clayton",1713,958,1942,28,213,573,"Active","","","http://www.redfin.com/MO/St-Louis/7743-Kingsbury-Blvd-63105/unit-11/home/93325845","MARIS","18081202","N","Y",38.6562579,-90.3352019,2018,925
"MLS Listing",NA,"Single Family Residential","1150 Sutter Ave","St Louis","MO","63130",89000,3,1,"University City",1176,4400,1901,44,76,NA,"Active","","","http://www.redfin.com/MO/St-Louis/1150-Sutter-Ave-63130/home/93456576","MARIS","19090754","N","Y",38.6680561,-90.3022768,2020,1911
"New Construction Plan",NA,"Single Family Residential","The Westhampton II - 3 Car Garage","Saint Charles","MO","63301",349900,4,2.5,"Charlestowne Place",3056,NA,NA,NA,114,NA,"Active","","","http://www.redfin.com/MO/Saint-Charles/Charlestowne-Place/The-Westhampton-II-3-Car-Garage/home/144901406","NewHomeSource.com","Plan-71556611","N","Y",38.827639,-90.48084,2018,1510
"MLS Listing",NA,"Single Family Residential","7115 Hosmer Ave","St Louis","MO","63123",199900,2,2,"Affton",1624,16553,1952,63,123,NA,"Active","","","http://www.redfin.com/MO/Affton/7115-Hosmer-Ave-63123/home/93560765","MARIS","18087074","N","Y",38.5578672,-90.3393019,2018,626
"MLS Listing",NA,"Single Family Residential","128 Hammel Ave","St Louis","MO","63119",575000,5,4,"Webster Groves",2800,7144,NA,631,205,NA,"Active","","","http://www.redfin.com/MO/St-Louis/128-Hammel-Ave-63119/home/113715072","MARIS","17029117","N","Y",38.596864,-90.3723823,2018,1085
"MLS Listing",NA,"Single Family Residential","4344 Gannett","St Louis","MO","63116",105000,2,1,"South City",768,3223,1911,48,137,NA,"Active","","","http://www.redfin.com/MO/St-Louis/4344-Gannett-St-63116/home/93763621","MARIS","18088307","N","Y",38.584335,-90.267982,2018,249
"MLS Listing",NA,"Condo/Co-op","520 North And South #102","University City","MO","63130",545000,2,3,"University City",2000,1368,2004,16,273,650,"Active","","","http://www.redfin.com/MO/St-Louis/520-N-and-South-Rd-63130/unit-102/home/93321718","MARIS","18095151","N","Y",38.6578059,-90.3373804,2018,1072
"MLS Listing",NA,"Vacant Land","2620 Lyle Ave","St Louis","MO","63143",19900,NA,NA,"Maplewood-Rchmnd Hts",NA,3441,NA,181,NA,NA,"Active","","","http://www.redfin.com/MO/Maplewood/2620-Lyle-Ave-63143/home/105204966","MARIS","18054367","N","Y",38.6140574,-90.3214346,2018,33
"MLS Listing",NA,"Single Family Residential","1334 Cordata (arbors 23) Dr","Frontenac","MO","63131",995098,2,3,"Ladue",3201,NA,NA,31,311,NA,"Active","","","http://www.redfin.com/MO/Frontenac/1334-Cordata-arbors-23-DR-63131/home/170156115","MARIS","19089173","N","Y",38.634418,-90.414338,2020,1663
"MLS Listing",NA,"Single Family Residential","3714 Upton St","St Louis","MO","63116",119000,2,2,"South City",840,3615,1960,70,142,NA,"Active","","","http://www.redfin.com/MO/St-Louis/3714-Upton-St-63116/home/93751437","MARIS","18086121","N","Y",38.5562441,-90.269065,2018,294
"MLS Listing",NA,"Single Family Residential","5845 Staely Ave","St Louis","MO","63123",125000,2,2,"Affton",768,7187,1950,84,163,NA,"Active","","","http://www.redfin.com/MO/Affton/5845-Staely-Ave-63123/home/93559907","MARIS","18081578","N","Y",38.5630177,-90.316304,2018,327
"MLS Listing",NA,"Single Family Residential","425 Wenneker","Ladue","MO","63124",299000,3,3,"Ladue",1643,20735,1956,44,182,25,"Active","","","http://www.redfin.com/MO/St-Louis/425-Wenneker-Dr-63124/home/93479617","MARIS","18090206","N","Y",38.6461353,-90.3516197,2018,830
"MLS Listing",NA,"Single Family Residential","13028 Conway Estates Dr","Town and Country","MO","63141",950000,4,5,"Parkway Central",3842,47916,1979,30,247,21,"Active","","","http://www.redfin.com/MO/St-Louis/13028-Conway-Estates-Dr-63141/home/93473933","MARIS","20001651","N","Y",38.6493843,-90.4818779,2020,2127
"MLS Listing",NA,"Single Family Residential","2102 S Warson Rd","Ladue","MO","63124",1800000,8,8,"Ladue",7937,135907,1948,136,227,NA,"Active","","","http://www.redfin.com/MO/St-Louis/2102-Warson-Rd-63124/home/93490630","MARIS","18062382","N","Y",38.628295,-90.394386,2018,1217
"MLS Listing",NA,"Single Family Residential","3706 Ohio Ave","St Louis","MO","63118",27500,2,2,"Central East",1230,3441,1877,63,22,NA,"Active","","","http://www.redfin.com/MO/St-Louis/3706-Ohio-Ave-63118/home/93696543","MARIS","18087638","N","Y",38.5879126,-90.2286473,2018,51
"MLS Listing",NA,"Condo/Co-op","5635 Waterman Blvd #32","St Louis","MO","63112",125000,2,1,"Central West",865,NA,1915,92,145,344,"Active","January-6-2019 1:00 PM","January-6-2019 3:00 PM","http://www.redfin.com/MO/St-Louis/5635-Waterman-Blvd-63112/unit-32/home/147387844","MARIS","18078860","N","Y",38.650104,-90.283214,2018,353
"MLS Listing",NA,"Single Family Residential","5210 Washington Pl","St Louis","MO","63108",350000,6,6,"Central West",5592,8146,1901,204,63,NA,"Active","","","http://www.redfin.com/MO/St-Louis/5210-Washington-Pl-63108/home/93749447","MARIS","18047138","N","Y",38.650853,-90.2703499,2018,914
"MLS Listing",NA,"Single Family Residential","4812 Leduc St","St Louis","MO","63113",40000,4,2,"North",1554,3006,1928,48,26,NA,"Active","","","http://www.redfin.com/MO/St-Louis/4812-Leduc-St-63113/home/93720668","MARIS","18090263","N","Y",38.6636743,-90.2547339,2018,80
"MLS Listing",NA,"Single Family Residential","3614 Flad Ave","St Louis","MO","63110",333000,3,3,"South City",2200,NA,2015,87,151,411,"Active","","","http://www.redfin.com/MO/St-Louis/3614-Flad-Ave-63110/home/100380296","MARIS","18081144","N","Y",38.6112568,-90.2415007,2018,885
"MLS Listing",NA,"Single Family Residential","5206 Tennessee Ave","St Louis","MO","63111",52000,2,1,"South City",1000,3877,1913,240,52,NA,"Active","","","http://www.redfin.com/MO/St-Louis/5206-Tennessee-Ave-63111/home/93707914","MARIS","18031582","N","Y",38.5706471,-90.250757,2018,106
"MLS Listing",NA,"Single Family Residential","5009 Oleatha Ave","St Louis","MO","63139",229900,3,2,"South City",1566,4051,1927,125,147,NA,"Active","","","http://www.redfin.com/MO/St-Louis/5009-Oleatha-Ave-63139/home/93777125","MARIS","18070953","N","Y",38.5969227,-90.2760544,2018,682
"MLS Listing",NA,"Condo/Co-op","2610 Plantation Pt","St Charles","MO","63303",141000,3,3,"Francis Howell",1760,1873,1977,124,80,200,"Active","","","http://www.redfin.com/MO/St-Charles/2610-Plantation-Pt-63303/unit-B/home/103307665","MARIS","18070455","N","Y",38.748492,-90.54509,2018,1407
"MLS Listing",NA,"Single Family Residential","6222 Goener Ave","St Louis","MO","63116",99999,2,1,"South City",911,1220,1947,29,110,NA,"Active","","","http://www.redfin.com/MO/St-Louis/6222-Goener-Ave-63116/home/93756660","MARIS","18093120","N","Y",38.5740237,-90.2781633,2018,240
"MLS Listing",NA,"Single Family Residential","451 Linum Ln","Webster Groves","MO","63119",275000,3,2,"Webster Groves",1834,15333,1952,28,150,NA,"Active","","","http://www.redfin.com/MO/Webster-Groves/451-Linum-Ln-63119/home/93542694","MARIS","18093546","N","Y",38.5676788,-90.3704586,2018,797
"MLS Listing",NA,"Single Family Residential","6416 Myrlette Ct","St Louis","MO","63116",200000,3,2,"South City",1308,5793,1954,26,153,NA,"Active","","","http://www.redfin.com/MO/St-Louis/6416-Myrlette-Ct-63116/home/93783570","MARIS","18093338","N","Y",38.571199,-90.278692,2018,630
"MLS Listing",NA,"Multi-Family (2-4 Unit)","7130 Idaho Ave","St Louis","MO","63111",75000,1,1,"South City",NA,3006,1958,27,NA,NA,"Active","","","http://www.redfin.com/MO/St-Louis/7130-Idaho-Ave-63111/home/93710276","MARIS","18093643","N","Y",38.5543,-90.260695,2018,170
"MLS Listing",NA,"Single Family Residential","7424 Devonshire Ave","St Louis","MO","63119",175000,2,2,"Webster Groves",1482,7492,1951,153,118,NA,"Active","","","http://www.redfin.com/MO/St-Louis/7424-Devonshire-Ave-63119/home/93524350","MARIS","18062947","N","Y",38.5916505,-90.3268349,2018,543
"MLS Listing",NA,"Single Family Residential","3925 Humphrey St","St Louis","MO","63116",260000,3,3,"South City",1426,3615,1908,63,182,NA,"Active","","","http://www.redfin.com/MO/St-Louis/3925-Humphrey-St-63116/home/93729556","MARIS","18087516","N","Y",38.599137,-90.251166,2018,776
"MLS Listing",NA,"Single Family Residential","114 Pillar Ln","St Louis","MO","63141",725000,6,4,"Ladue",4036,73616,1958,92,180,NA,"Active","","","http://www.redfin.com/MO/Creve-Coeur/114-Pillar-Ln-63141/home/93472337","MARIS","19076174","N","Y",38.6528439,-90.4064897,2020,1713
"MLS Listing",NA,"Condo/Co-op","5527 Waterman Unit 2W","St Louis","MO","63112",168400,2,2,"Central West",1389,NA,1914,86,121,298,"Active","","","http://www.redfin.com/MO/St-Louis/5527-Waterman-Blvd-63112/unit-2W/home/93724139","MARIS","18075409","N","Y",38.649572,-90.279175,2018,516
"MLS Listing",NA,"Single Family Residential","6624 Bartmer Ave","University City","MO","63130",69900,2,1,"University City",1125,5663,1915,185,62,NA,"Active","","","http://www.redfin.com/MO/University-City/6624-Bartmer-Ave-63130/home/93456006","MARIS","18053173","N","Y",38.6645722,-90.3051226,2018,147
"MLS Listing",NA,"Single Family Residential","316 Conway Gardens Ct","Creve Coeur","MO","63141",634900,4,4,"Parkway Central",3618,29721,1975,114,175,NA,"Active","","","http://www.redfin.com/MO/Creve-Coeur/316-Conway-Garden-Ct-63141/home/68134866","MARIS","19054970","N","Y",38.6502229,-90.464254,2020,2127
"MLS Listing",NA,"Multi-Family (2-4 Unit)","6945 Gravois Ave","St Louis","MO","63116",229900,1,1,"South City",3400,3920,1916,27,68,NA,"Active","","","http://www.redfin.com/MO/St-Louis/6945-Gravois-Ave-63116/home/93758312","MARIS","18093459","N","Y",38.5692359,-90.286503,2018,681
"MLS Listing",NA,"Single Family Residential","3627 Tamm Ave","St Louis","MO","63109",247000,4,3,"South City",1664,5227,1939,138,148,NA,"Active","","","http://www.redfin.com/MO/St-Louis/3627-Tamm-Ave-63109/home/93778455","MARIS","18066806","N","Y",38.5964435,-90.2985322,2018,748
"MLS Listing",NA,"Single Family Residential","5505 Walsh Ave","St Louis","MO","63109",234900,4,3,"South City",1788,3920,1937,147,131,NA,"Active","January-6-2019 1:00 PM","January-6-2019 3:00 PM","http://www.redfin.com/MO/St-Louis/5505-Walsh-St-63109/home/93766664","MARIS","18064345","N","Y",38.582946,-90.2875587,2018,687
"MLS Listing",NA,"Condo/Co-op","4545 Lindell Blvd #18","St Louis","MO","63108",529900,1,2,"Central West",1525,NA,2008,90,347,540,"Active","","","http://www.redfin.com/MO/St-Louis/4545-Lindell-Blvd-63108/unit-18/home/146873883","MARIS","18080572","N","Y",38.6432895,-90.2594755,2018,1049
"MLS Listing",NA,"Single Family Residential","5519 Grace Ave","St Louis","MO","63116",89900,2,1,"South City",1080,4138,1908,69,83,NA,"Active","","","http://www.redfin.com/MO/St-Louis/5519-Grace-Ave-63116/home/93761580","MARIS","18086337","N","Y",38.5699748,-90.2550181,2018,198
"MLS Listing",NA,"Multi-Family (2-4 Unit)","3530 Humphrey St","St Louis","MO","63118",150000,5,2.5,"Central East",2860,4356,1905,1,52,NA,"Active","","","http://www.redfin.com/MO/St-Louis/3530-Humphrey-St-63118/home/93693347","MARIS","19000019","N","Y",38.597868,-90.242129,2018,459
"MLS Listing",NA,"Single Family Residential","5620 Tholozan Ave","St Louis","MO","63109",130000,3,1,"South City",1560,4966,1941,138,83,NA,"Active","","","http://www.redfin.com/MO/St-Louis/5620-Tholozan-Ave-63109/home/79086395","MARIS","18064687","N","Y",38.594946,-90.286285,2018,346
"MLS Listing",NA,"Single Family Residential","9000 Fernald Dr","St Louis","MO","63123",525000,3,3,"Lindbergh",2542,19079,1960,1,207,NA,"Active","January-6-2019 1:00 PM","January-6-2019 3:00 PM","http://www.redfin.com/MO/St-Louis/9000-Fernald-Dr-63123/home/93560401","MARIS","18095746","N","Y",38.5533695,-90.3483063,2018,1063
"MLS Listing",NA,"Single Family Residential","648 Lewiston Dr","St Louis","MO","63122",769000,5,4,"Kirkwood",2740,7405,NA,8,281,NA,"Active","","","http://www.redfin.com/MO/St-Louis/648-Lewiston-Dr-63122/home/93513019","MARIS","20002438","N","Y",38.5994805,-90.3918318,2020,1628
"MLS Listing",NA,"Single Family Residential","3143 Lackland Ave","St Louis","MO","63116",215000,4,2,"South City",2652,4356,1919,22,81,NA,"Active","","","http://www.redfin.com/MO/St-Louis/3143-Lackland-Ave-63116/home/93767184","MARIS","18094443","N","Y",38.6037255,-90.2661848,2018,658
"MLS Listing",NA,"Single Family Residential","3549 Manhattan Ave","St Louis","MO","63143",225000,3,2,"Maplewood-Rchmnd Hts",1960,8102,1903,48,115,NA,"Active","","","http://www.redfin.com/MO/Maplewood/3549-Manhattan-Ave-63143/home/93508208","MARIS","18089159","N","Y",38.6021245,-90.3191416,2018,672
"MLS Listing",NA,"Single Family Residential","4808 Arsenal","St Louis","MO","63116",349900,3,3,"South City",2472,3703,1921,91,142,NA,"Active","","","http://www.redfin.com/MO/St-Louis/4808-Arsenal-St-63116/home/93767045","MARIS","18075970","N","Y",38.60478,-90.268426,2018,905
"MLS Listing",NA,"Single Family Residential","7448 Morganford","St Louis","MO","63116",129900,2,1,"South City",912,NA,NA,71,142,NA,"Active","","","http://www.redfin.com/MO/St-Louis/7448-Morganford-Rd-63116/home/93784397","MARIS","18084711","N","Y",38.5608397,-90.2816033,2018,340
"MLS Listing",NA,"Single Family Residential","4131 Eichelberger","St Louis","MO","63116",44900,3,1,"South City",NA,7841,NA,476,NA,NA,"Active","","","http://www.redfin.com/MO/St-Louis/4131-Eichelberger-St-63116/home/93757681","MARIS","17073829","N","Y",38.5770276,-90.2648471,2018,86
"New Construction Plan",NA,"Single Family Residential","The Aspen - 3 Car Garage","Saint Charles","MO","63301",277900,4,2.5,"Charlestowne Place",2028,NA,NA,NA,137,NA,"Active","","","http://www.redfin.com/MO/Saint-Charles/Charlestowne-Place/The-Aspen-3-Car-Garage/home/144901416","NewHomeSource.com","Plan-71556604","N","Y",38.827639,-90.48084,2018,1531
"MLS Listing",NA,"Single Family Residential","3810 Botanical Ave","St Louis","MO","63110",449900,4,5,"South City",2920,3964,1896,93,154,NA,"Active","","","http://www.redfin.com/MO/St-Louis/3810-Botanical-Ave-63110/home/93699823","MARIS","18079201","N","Y",38.6088259,-90.2440922,2018,993
"MLS Listing",NA,"Single Family Residential","5322 Pernod Ave","St Louis","MO","63139",177900,3,1,"South City",1674,4225,1932,83,106,NA,"Active","","","http://www.redfin.com/MO/St-Louis/5322-Pernod-Ave-63139/home/93781688","MARIS","18082157","N","Y",38.5953158,-90.2814901,2018,557
"MLS Listing",NA,"Single Family Residential","212 Timbercrest Rd","St Louis","MO","63122",375000,3,2,"Kirkwood",1245,7405,1950,6,301,3,"Active","February-2-2020 01:00 PM","February-2-2020 03:00 PM","http://www.redfin.com/MO/St-Louis/212-Timbercrest-Rd-63122/home/93513408","MARIS","20002439","N","Y",38.6029354,-90.4033701,2020,1613
"MLS Listing",NA,"Single Family Residential","5201 Alaska Ave","St Louis","MO","63111",133000,4,3,"South City",2084,2614,1912,56,64,NA,"Active","","","http://www.redfin.com/MO/St-Louis/5201-Alaska-Ave-63111/home/93707996","MARIS","18089226","N","Y",38.569947,-90.2490048,2018,382
"MLS Listing",NA,"Single Family Residential","820 N Price Rd","St Louis","MO","63132",310000,3,3,"Ladue",1544,15725,1900,38,201,NA,"Active","","","http://www.redfin.com/MO/Olivette/820-N-Price-Rd-63132/home/93462631","MARIS","19086420","N","Y",38.6703887,-90.3662838,2020,1904
"MLS Listing",NA,"Single Family Residential","28 Overbrook Dr","Ladue","MO","63124",2995000,6,8,"Ladue",9159,99752,2002,223,327,NA,"Active","","","http://www.redfin.com/MO/St-Louis/28-Overbrook-Dr-63124/home/93500685","MARIS","19044520","N","Y",38.6190717,-90.37627,2020,1778
"MLS Listing",NA,"Condo/Co-op","5636 Waterman Blvd #34","St Louis","MO","63112",85000,1,1,"Central West",570,NA,1916,184,149,212,"Active","","","http://www.redfin.com/MO/St-Louis/5636-Waterman-Blvd-63112/unit-34/home/146165408","MARIS","18052385","N","Y",38.649346,-90.283283,2018,186
"MLS Listing",NA,"Single Family Residential","0 Grand Reserve Unit Chateau","Chesterfield","MO","63017",653900,3,3,"Parkway Central",2640,NA,NA,231,248,NA,"Active","","","http://www.redfin.com/MO/Chesterfield/226-S-Woods-Mill-Rd-63017/unit-Chateau/home/170496790","MARIS","19047012","N","Y",38.6515302,-90.5044858,2020,2127
"MLS Listing",NA,"Single Family Residential","3447 Longfellow Blvd","St Louis","MO","63104",662500,7,4,"Central East",4312,10411,1900,132,154,NA,"Active","","","http://www.redfin.com/MO/St-Louis/3447-Longfellow-Blvd-63104/home/93691000","MARIS","18067246","N","Y",38.6118318,-90.2373475,2018,1116
"MLS Listing",NA,"Single Family Residential","1721 Oregon Pl","St Louis","MO","63104",184900,3,3,"Central East",2506,3790,1883,1,74,NA,"Active","","","http://www.redfin.com/MO/St-Louis/1721-Oregon-Pl-63104/home/93690067","MARIS","18093606","N","Y",38.614868,-90.227169,2018,580
"MLS Listing",NA,"Single Family Residential","4259 Maryland Ave","St Louis","MO","63108",317500,4,3,"Central West",2706,2309,1907,225,117,NA,"Active","","","http://www.redfin.com/MO/St-Louis/4259-Maryland-Ave-63108/home/93684088","MARIS","18040318","N","Y",38.6421279,-90.2499165,2018,858
"MLS Listing",NA,"Single Family Residential","4944 Washington","St Louis","MO","63108",599900,4,4,"Central West",3312,4443,1900,363,181,NA,"Active","","","http://www.redfin.com/MO/St-Louis/4944-Washington-63108/home/148121915","MARIS","18001106","N","Y",38.650094,-90.262383,2018,1096
"MLS Listing",NA,"Single Family Residential","7008 Kingsbury Blvd","St Louis","MO","63130",494900,3,3,"University City",2187,8756,1922,113,226,NA,"Active","","","http://www.redfin.com/MO/University-City/7008-Kingsbury-Blvd-63130/home/93468599","MARIS","18073947","N","Y",38.653916,-90.315099,2018,1022
"For-Sale-by-Owner Listing",NA,"Single Family Residential","7 Newcastle Ct","St Charles","MO","63301",350000,5,3,"Saint Charles",2318,11325,1986,141,151,NA,"Active","","","http://www.redfin.com/MO/St-Charles/7-Newcastle-Ct-63301/home/103328142","Fizber.com","4975662","N","Y",38.8005311,-90.530084,2018,1477
"New Construction Plan",NA,"Single Family Residential","Lombardo Homes Ozark Plan","Saint Charles","MO","63301",408000,3,2.5,"The Villages at Sandfort Farm",2526,NA,NA,NA,162,NA,"Active","","","http://www.redfin.com/MO/St-Charles/The-Villages-at-Sandfort-Farm/Lombardo-Homes-Ozark-Plan/home/148501568","NewHomeSource.com","Plan-61581129","N","Y",38.7980405,-90.5517474,2018,1537
"For-Sale-by-Owner Listing",NA,"Condo/Co-op","8933 S Swan Cir","St. Louis","MO","63144",349000,3,1.5,"Saint Louis",1790,NA,1950,103,195,NA,"Active","","","http://www.redfin.com/MO/St-Louis/8933-S-Swan-Cir-63144/home/93488741","Fizber.com","5035335","N","Y",38.6243735,-90.3508273,2020,1810
"MLS Listing",NA,"Single Family Residential","5227 Minerva Ave","St Louis","MO","63113",43000,5,1,"North",1670,8276,1891,214,26,NA,"Active","","","http://www.redfin.com/MO/St-Louis/5227-Minerva-Ave-63113/home/93721358","MARIS","19045592","N","Y",38.6620751,-90.2693584,2020,1990
"MLS Listing",NA,"Single Family Residential","5226 Washington Pl","St Louis","MO","63108",500000,7,4,"Central West",4500,8407,1906,117,111,NA,"Active","","","http://www.redfin.com/MO/St-Louis/5226-Washington-Pl-63108/home/93749449","MARIS","19069569","N","Y",38.6510012,-90.2709653,2020,1951
"MLS Listing",NA,"Single Family Residential","4066 Stonecroft Dr","St Charles","MO","63304",397000,4,4,"Francis Howell",2925,10019,2008,12,136,NA,"Active","","","http://www.redfin.com/MO/St-Charles/4066-Stonecroft-Dr-63304/home/103250450","MARIS","18095593","N","Y",38.7308944,-90.6123986,2018,1263
"MLS Listing",NA,"Single Family Residential","4351 Tholozan Ave","St Louis","MO","63116",69500,2,1,"South City",621,3572,1951,82,112,NA,"Active","","","http://www.redfin.com/MO/St-Louis/4351-Tholozan-Ave-63116/home/93730107","MARIS","18082326","N","Y",38.5934116,-90.264653,2018,145
"MLS Listing",NA,"Multi-Family (2-4 Unit)","1010 Commodore Dr","St Louis","MO","63117",324000,4,2,"Maplewood-Rchmnd Hts",NA,9148,1935,26,NA,NA,"Active","","","http://www.redfin.com/MO/Richmond-Heights/1010-Commodore-Dr-63117/home/93488083","MARIS","20002874","N","Y",38.634624,-90.319453,2020,1883
"MLS Listing",NA,"Multi-Family (5+ Unit)","820 Hamilton Ave","St Louis","MO","63112",260000,NA,NA,"Central West",9360,NA,1910,19,28,NA,"Active","","","http://www.redfin.com/MO/St-Louis/820-Hamilton-Ave-63112/home/93678983","MARIS","18093618","N","Y",38.6575789,-90.2899015,2018,773
"MLS Listing",NA,"Single Family Residential","5233 Shaw Ave","St Louis","MO","63110",439900,3,3,"South City",1850,NA,NA,143,238,NA,"Active","","","http://www.redfin.com/MO/St-Louis/5233-Shaw-Ave-63110/home/93727989","MARIS","18065199","N","Y",38.618361,-90.273576,2018,988
"New Construction Plan",NA,"Single Family Residential","Breckenridge","Saint Charles","MO","63301",335900,4,2.5,"Provence, The Villages of",3186,NA,NA,NA,105,NA,"Active","","","http://www.redfin.com/MO/St-Charles/Provence-The-Villages-of/Breckenridge/home/148215134","NewHomeSource.com","Plan-71212479","N","Y",38.804399,-90.485759,2018,1552
"MLS Listing",NA,"Single Family Residential","9423 Sterling","St Louis","MO","63123",149900,2,1,"Affton",1100,5184,1929,86,136,NA,"Active","","","http://www.redfin.com/MO/Affton/9423-Sterling-Pl-63123/home/93558245","MARIS","18081422","N","Y",38.5526849,-90.3210919,2018,443
"MLS Listing",NA,"Condo/Co-op","816 S Hanley Rd Unit 15B","St Louis","MO","63105",345000,2,2,"Clayton",1760,1263,1974,7,196,1177,"Active","","","http://www.redfin.com/MO/Clayton/816-S-Hanley-Rd-63105/unit-15B/home/93479376","MARIS","20006776","N","Y",38.639242,-90.334754,2020,1847
"For-Sale-by-Owner Listing",NA,"Condo/Co-op","1185 Rue La Ville Walk","Creve Coeur","MO","63141",139000,3,1.5,"Saint Louis",1330,NA,1967,66,105,NA,"Active","","","http://www.redfin.com/MO/Creve-Coeur/1185-Rue-La-Ville-Walk-63141/unit-1185/home/93323575","Fizber.com","5036382","N","Y",38.679942,-90.47627,2020,2127
"MLS Listing",NA,"Single Family Residential","1542 Gold Leaf Dr","St Louis","MO","63146",310000,3,3,"Parkway North",2280,12197,1965,5,136,NA,"Active","","","http://www.redfin.com/MO/St-Louis/1542-Gold-Leaf-Dr-63146/home/93453750","MARIS","20006688","N","Y",38.6874857,-90.4392682,2020,2127
"MLS Listing",NA,"Single Family Residential","1 Tbb Geneva At Provence","St Charles","MO","63301",278900,3,2,"St. Charles",1627,NA,NA,1154,171,27,"Active","","","http://www.redfin.com/MO/St-Charles/1-Tbb-Geneva-At-Provence-63301/home/101814706","MARIS","15058747","N","Y",38.800392,-90.486588,2018,1468
"MLS Listing",NA,"Condo/Co-op","250 S Brentwood Unit 3G","St Louis","MO","63105",299900,2,2,"Clayton",1945,1089,1940,7,154,549,"Active","","","http://www.redfin.com/MO/Clayton/250-S-Brentwood-Blvd-63105/unit-3G/home/93479958","MARIS","20005869","N","Y",38.646143,-90.3418101,2020,1851
"MLS Listing",NA,"Single Family Residential","5128 Eichelberger","St Louis","MO","63109",139000,2,1,"South City",1161,4182,1924,84,120,NA,"Active","","","http://www.redfin.com/MO/St-Louis/5128-Eichelberger-St-63109/home/93769474","MARIS","18082113","N","Y",38.5811477,-90.2829335,2018,403
"MLS Listing",NA,"Single Family Residential","14 Arundel Pl","St Louis","MO","63105",549900,4,3,"Central West",2500,8146,1914,136,220,NA,"Active","January-26-2020 01:00 PM","January-26-2020 03:00 PM","http://www.redfin.com/MO/St-Louis/14-Arundel-Pl-63105/home/83542123","MARIS","19062843","N","Y",38.6393324,-90.3046798,2020,1751
"MLS Listing",NA,"Single Family Residential","371 Woodmere Nook Ct","St Charles","MO","63303",437500,4,3,"Francis Howell North",2901,52708,1993,111,151,8,"Active","","","http://www.redfin.com/MO/St-Charles/371-Woodmere-Nook-Ct-63303/home/103301014","MARIS","18073851","N","Y",38.7256717,-90.5522455,2018,1403
"MLS Listing",NA,"Single Family Residential","7204 Westmoreland Dr","University City","MO","63130",759000,4,4,"University City",3300,13155,1922,287,230,9,"Active","","","http://www.redfin.com/MO/University-City/7204-Westmoreland-Dr-63130/home/81822004","MARIS","18021559","N","Y",38.6509694,-90.3206381,2018,1141
"MLS Listing",NA,"Condo/Co-op","3149 Railcar Bnd","St Charles","MO","63301",159900,2,3,"Orchard Farm",1298,1873,2007,1,123,75,"Active","","","http://www.redfin.com/MO/St-Charles/3149-Railcar-Bnd-63301/home/62702745","MARIS","18096240","N","Y",38.825561,-90.488949,2018,1244
"For-Sale-by-Owner Listing",NA,"Single Family Residential","24 Ridge Mt Ct","St Charles","MO","63303",369000,4,3,"Saint Charles",2625,9583,1992,14,141,NA,"Active","","","http://www.redfin.com/MO/St-Charles/24-Ridge-Mt-Ct-63303/home/103306783","Fizber.com","4993096","N","Y",38.7423734,-90.5341462,2018,1474
"MLS Listing",NA,"Single Family Residential","7043 Waterman Ave","St Louis","MO","63130",399000,3,3,"University City",1896,5619,1915,122,210,NA,"Active","","","http://www.redfin.com/MO/University-City/7043-Waterman-Ave-63130/home/92409879","MARIS","18071483","N","Y",38.6534882,-90.3165188,2018,955
"MLS Listing",NA,"Single Family Residential","5610 Staely Ave","St Louis","MO","63123",36900,0,NA,"Affton",1000,7492,1947,72,37,NA,"Active","","","http://www.redfin.com/MO/Affton/5610-Staely-Ave-63123/home/93559473","MARIS","18084599","N","Y",38.562648,-90.312759,2018,70
"MLS Listing",NA,"Single Family Residential","70 Waterman Pl","St Louis","MO","63112",788000,6,5,"Central West",5226,11238,1906,262,151,33,"Active","","","http://www.redfin.com/MO/St-Louis/70-Waterman-Pl-63112/home/93724350","MARIS","18029132","N","Y",38.6487581,-90.2765955,2018,1145
"MLS Listing",NA,"Condo/Co-op","900 S Hanley Rd Unit 6D","St Louis","MO","63105",230000,2,2,"Clayton",1566,1002,1964,108,147,1031,"Active","","","http://www.redfin.com/MO/Clayton/900-S-Hanley-Rd-63105/unit-6D/home/93479400","MARIS","18073996","N","Y",38.63868,-90.334825,2018,717
"MLS Listing",NA,"Condo/Co-op","4355 Maryland Ave #219","St Louis","MO","63108",124900,2,1,"Central West",873,NA,1967,127,143,311,"Active","","","http://www.redfin.com/MO/St-Louis/4355-Maryland-Ave-63108/unit-219/home/93725660","MARIS","18070190","N","Y",38.6429188,-90.2520925,2018,320
"MLS Listing",NA,"Single Family Residential","1912 Crossbridge Ct","St Charles","MO","63303",289900,4,3,"Francis Howell North",1890,6098,2009,15,153,19,"Active","","","http://www.redfin.com/MO/St-Charles/1912-Crossbridge-Ct-63303/home/103257198","MARIS","18095381","N","Y",38.7601418,-90.511625,2018,1265
"MLS Listing",NA,"Vacant Land","230 Lithia Ave","Webster Groves","MO","63119",15900,NA,NA,"Webster Groves",NA,6055,NA,167,NA,NA,"Active","","","http://www.redfin.com/MO/St-Louis/230-Lithia-Ave-63119/home/105520290","MARIS","18059462","N","Y",38.603801,-90.360885,2018,21
"MLS Listing",NA,"Single Family Residential","120 S Spoede Rd","Creve Coeur","MO","63141",849000,4,4,"Ladue",3000,43996,1960,34,283,NA,"Active","","","http://www.redfin.com/MO/Creve-Coeur/120-S-Spoede-Rd-63141/home/93472914","MARIS","20001130","N","Y",38.65274,-90.414855,2020,2127
"MLS Listing",NA,"Condo/Co-op","232 N Kingshighway Blvd #902","St Louis","MO","63108",510000,1,2,"Central West",1240,NA,1928,134,411,672,"Active","","","http://www.redfin.com/MO/St-Louis/232-Kingshighway-Blvd-63108/unit-902/home/62767195","MARIS","18066923","N","Y",38.6444816,-90.2645261,2018,1054
"New Construction Plan",NA,"Single Family Residential","The Savoy II - 3 Car Garage","Saint Charles","MO","63301",307900,4,2.5,"Charlestowne Place",2492,NA,NA,NA,124,NA,"Active","","","http://www.redfin.com/MO/Saint-Charles/Charlestowne-Place/The-Savoy-II-3-Car-Garage/home/144901404","NewHomeSource.com","Plan-71556613","N","Y",38.827639,-90.48084,2018,1502
"New Construction Plan",NA,"Single Family Residential","The Sienna","Saint Charles","MO","63303",305990,3,2.5,"Bristol Ridge",2230,NA,NA,NA,137,NA,"Active","","","http://www.redfin.com/MO/Saint-Charles/Bristol-Ridge/The-Sienna/home/144672531","NewHomeSource.com","Plan-71464073","N","Y",38.7612348,-90.5160179,2018,1499
"MLS Listing",NA,"Single Family Residential","5725 Lindell","St Louis","MO","63112",1799000,4,7,"Central West",5913,53013,1985,97,304,NA,"Active","","","http://www.redfin.com/MO/St-Louis/5725-Lindell-Blvd-63112/home/93763370","MARIS","19076965","N","Y",38.6466935,-90.2871353,2020,1940
"MLS Listing",NA,"Single Family Residential","6848 Glades Ave","St Louis","MO","63139",315000,3,3,"South City",1900,2265,2006,30,166,NA,"Active","","","http://www.redfin.com/MO/St-Louis/6848-Glades-Ave-63139/home/109920073","MARIS","18092909","N","Y",38.6210939,-90.3059074,2018,857
"MLS Listing",NA,"Single Family Residential","4119 Upton Ct","St Louis","MO","63116",122500,2,1,"South City",816,4922,1953,147,150,NA,"Active","","","http://www.redfin.com/MO/St-Louis/4119-Upton-Ct-63116/home/93784283","MARIS","18059978","N","Y",38.5620892,-90.2791269,2018,312
"MLS Listing",NA,"Single Family Residential","940 Golf Crse","St Louis","MO","63132",370000,4,3,"University City",1995,16901,1950,7,185,NA,"Active","","","http://www.redfin.com/MO/St-Louis/940-Golf-Course-Dr-63132/home/93459705","MARIS","18095966","N","Y",38.667485,-90.3528828,2018,931
"MLS Listing",NA,"Vacant Land","637 S Elliott Ave","St Louis","MO","63122",59900,NA,NA,"Kirkwood",NA,7449,NA,118,NA,NA,"Active","","","http://www.redfin.com/MO/Kirkwood/637-S-Elliott-Ave-63122/home/93544417","MARIS","18070856","N","Y",38.57154,-90.3999108,2018,121
"MLS Listing",NA,"Single Family Residential","3726 Fairview Ave","St Louis","MO","63116",107900,3,2,"South City",1700,3354,1905,91,63,NA,"Active","","","http://www.redfin.com/MO/St-Louis/3726-Fairview-Ave-63116/home/93730314","MARIS","18080301","N","Y",38.5950973,-90.2470892,2018,254
"MLS Listing",NA,"Single Family Residential","6229 Marmaduke Ave","St Louis","MO","63139",160000,3,1,"South City",1008,3398,1924,2,159,NA,"Active","January-28-2020 11:30 AM","January-28-2020 01:00 PM","http://www.redfin.com/MO/St-Louis/6229-Marmaduke-Ave-63139/home/62763361","MARIS","20003939","N","Y",38.6104313,-90.293824,2020,1612
"MLS Listing",NA,"Single Family Residential","1313 Woodruff Ave","St Louis","MO","63133",21250,1,1,"Normandy",816,6273,1927,66,26,NA,"Active","","","http://www.redfin.com/MO/St-Louis/1313-Woodruff-Ave-63133/home/93456879","MARIS","19087823","N","Y",38.6750067,-90.3064257,2020,1926
"MLS Listing",NA,"Single Family Residential","3172 Carrsville Ct","St Louis","MO","63139",147000,2,2,"South City",1173,1133,1988,102,125,200,"Active","","","http://www.redfin.com/MO/St-Louis/3172-Carrsville-Ct-63139/home/93766073","MARIS","18076265","N","Y",38.60436,-90.286938,2018,432
"MLS Listing",NA,"Multi-Family (2-4 Unit)","3224 Miami St","St Louis","MO","63118",45000,6,4,"Central East",2852,3676,1909,18,16,NA,"Active","","","http://www.redfin.com/MO/St-Louis/3224-Miami-St-63118/home/93695629","MARIS","18094978","N","Y",38.5910867,-90.2386303,2018,91
"MLS Listing",NA,"Single Family Residential","1048 Rockman Pl","St Louis","MO","63119",189900,3,3,"Webster Groves",1174,6490,1941,106,162,NA,"Active","January-6-2019 1:00 PM","January-6-2019 3:00 PM","http://www.redfin.com/MO/St-Louis/1048-Rockman-Pl-63119/home/62747927","MARIS","18075094","N","Y",38.6118628,-90.3657601,2018,602
"MLS Listing",NA,"Single Family Residential","8006 Central Park Dr","St Louis","MO","63117",495000,3,4,"Clayton",2144,1307,2018,240,231,240,"Active","","","http://www.redfin.com/MO/Richmond-Heights/8006-Central-Park-Dr-63117/home/145581425","MARIS","18035822","N","Y",38.633693,-90.342114,2018,1025
"MLS Listing",NA,"Single Family Residential","3549 Manhattan Ave","St Louis","MO","63143",225000,3,2,"Maplewood-Rchmnd Hts",1960,8102,1903,48,115,NA,"Active","","","http://www.redfin.com/MO/Maplewood/3549-Manhattan-Ave-63143/home/93508208","MARIS","18089159","N","Y",38.6021245,-90.3191416,2018,705
"MLS Listing",NA,"Single Family Residential","3931 Humphrey","St Louis","MO","63116",244900,3,2,"South City",1620,3790,1908,97,151,NA,"Active","","","http://www.redfin.com/MO/St-Louis/3931-Humphrey-St-63116/home/93729562","MARIS","18078894","N","Y",38.5991009,-90.2514168,2018,742
"MLS Listing",NA,"Single Family Residential","6215 Pershing Ave","St Louis","MO","63130",399000,6,3,"Central West",3176,5489,1910,136,126,NA,"Active","","","http://www.redfin.com/MO/St-Louis/6215-Pershing-Ave-63130/home/93760099","MARIS","19072994","N","Y",38.6503045,-90.3012326,2020,1962
"MLS Listing",NA,"Single Family Residential","20 Stoneleigh Towers","Olivette","MO","63132",550000,4,3,"Ladue",2902,20125,1936,4,190,35,"Active","","","http://www.redfin.com/MO/Olivette/20-Stoneleigh-Towers-63132/home/93462610","MARIS","20005661","N","Y",38.6709061,-90.3656962,2020,1825
"MLS Listing",NA,"Condo/Co-op","1233 Guelbreth Ln #210","St Louis","MO","63146",94900,2,2,"Pattonville",945,2352,1973,10,100,278,"Active","","","http://www.redfin.com/MO/St-Louis/1233-Guelbreth-Ln-63146/unit-210/home/93450350","MARIS","20006336","N","Y",38.6825603,-90.4085381,2020,2127
"MLS Listing",NA,"Single Family Residential","746 Friedens Rd","St Charles","MO","63303",176000,3,2,"Francis Howell North",1418,13765,1950,24,124,NA,"Active","","","http://www.redfin.com/MO/St-Charles/746-Friedens-Rd-63303/home/103285409","MARIS","18093895","N","Y",38.7646428,-90.5202628,2018,1281
"MLS Listing",NA,"Single Family Residential","805 Manitou Dr","St Louis","MO","63119",165900,3,1,"Webster Groves",960,7588,1955,52,173,NA,"Active","","","http://www.redfin.com/MO/St-Louis/805-Manitou-Dr-63119/home/93511494","MARIS","18089225","N","Y",38.6036494,-90.3733826,2018,510
"MLS Listing",NA,"Single Family Residential","740 Dickson St","St Louis","MO","63122",619900,4,3,"Kirkwood",2864,10542,1947,8,216,NA,"Active","January-6-2019 1:00 PM","January-6-2019 3:00 PM","http://www.redfin.com/MO/Kirkwood/740-Dickson-St-63122/home/63628130","MARIS","18095556","N","Y",38.5923067,-90.3936623,2018,1100
"MLS Listing",NA,"Multi-Family (2-4 Unit)","7128 Idaho Ave","St Louis","MO","63111",75000,1,1,"South City",NA,2657,1958,27,NA,NA,"Active","","","http://www.redfin.com/MO/St-Louis/7128-Idaho-Ave-63111/home/93710275","MARIS","18093638","N","Y",38.5543509,-90.260636,2018,169
"MLS Listing",NA,"Single Family Residential","8436 Big Bend Blvd","St Louis","MO","63119",350000,3,2,"Webster Groves",1833,10062,1923,125,191,NA,"Active","","","http://www.redfin.com/MO/Webster-Groves/8436-Big-Bend-Blvd-63119/home/93525082","MARIS","18070830","N","Y",38.585615,-90.351107,2018,912
"MLS Listing",NA,"Single Family Residential","2812 Nebraska Ave","St Louis","MO","63118",65000,3,2,"Central East",1716,958,1885,135,38,NA,"Active","","","http://www.redfin.com/MO/St-Louis/2812-Nebraska-Ave-63118/home/93691851","MARIS","18067074","N","Y",38.6039764,-90.2300543,2018,138
"MLS Listing",NA,"Condo/Co-op","6 Arbors At Frontenac","Frontenac","MO","63131",850900,3,4,"Ladue",3411,5227,NA,228,249,600,"Active","","","http://www.redfin.com/MO/Frontenac/10601-Clayton-Rd-63131/home/160365663","MARIS","19042834","N","Y",38.6336552,-90.4133394,2020,1780
"MLS Listing",NA,"Single Family Residential","0 Tbb Terry Park Subdivision","St Louis","MO","63104",292300,5,3,"Central East",2752,NA,NA,346,106,NA,"Active","","","http://www.redfin.com/MO/St-Louis/3200-Eads-Ave-63104/home/62685151","MARIS","18004069","N","Y",38.617697,-90.233312,2018,825
"New Construction Plan",NA,"Single Family Residential","Maple","Saint Charles","MO","63301",240900,3,2,"Manors at Charlestowne Crossing",NA,NA,NA,NA,NA,NA,"Active","","","http://www.redfin.com/MO/Saint-Charles/Manors-at-Charlestowne-Crossing/Maple/home/145517845","NewHomeSource.com","Plan-61347429","N","Y",38.8272885,-90.4817649,2018,1571
"MLS Listing",NA,"Single Family Residential","620 N Forest Ave","Webster Groves","MO","63119",649900,4,3,"Webster Groves",3048,6839,2015,84,213,NA,"Active","January-6-2019 12:00 PM","January-6-2019 2:00 PM","http://www.redfin.com/MO/Webster-Groves/620-N-Forest-Ave-63119/home/62686506","MARIS","18076731","N","Y",38.6063142,-90.3427738,2018,1111
"MLS Listing",NA,"Condo/Co-op","5376 N Kenrick Parke Dr #304","St Louis","MO","63119",149900,2,2,"Affton",1122,2788,1984,66,134,306,"Active","","","http://www.redfin.com/MO/St-Louis/5376-Kenrick-Parke-Dr-63119/unit-304/home/93523334","MARIS","18084487","N","Y",38.5822027,-90.3330835,2018,449
"MLS Listing",NA,"Single Family Residential","1912 Overland","St Louis","MO","63114",109900,4,2,"Ritenour",1265,6229,1952,28,87,NA,"Active","","","http://www.redfin.com/MO/St-Louis/1912-Overland-Dr-63114/home/93437828","MARIS","20001837","N","Y",38.6916787,-90.3767028,2020,1885
"MLS Listing",NA,"Ranch","0 Grafton Ferry Rd","Unincorporated","MO","63301",850500,0,NA,"St. Charles",NA,3528360,NA,261,NA,NA,"Active","","","http://www.redfin.com/MO/Unincorporated/0-Grafton-Ferry-Rd-63301/home/145335966","MARIS","18029578","N","Y",38.939781,-90.435788,2018,1441
"MLS Listing",NA,"Single Family Residential","3819 Robert","St Louis","MO","63116",325606,3,3,"South City",1920,NA,NA,262,170,17,"Active","","","http://www.redfin.com/MO/St-Louis/3819-Robert-Ave-63116/home/93679220","MARIS","18026429","N","Y",38.5587639,-90.270491,2018,879
"MLS Listing",NA,"Condo/Co-op","8859 Flamingo Ct","Brentwood","MO","63144",164900,2,1,"Brentwood",916,2827,1950,55,180,178,"Active","","","http://www.redfin.com/MO/St-Louis/8859-Flamingo-Ct-63144/home/93489637","MARIS","18089309","N","Y",38.6287771,-90.3501226,2018,505
"MLS Listing",NA,"Single Family Residential","15 S Spoede Rd","St Louis","MO","63141",779000,4,4,"Ladue",3018,44867,1956,88,258,NA,"Active","","","http://www.redfin.com/MO/Creve-Coeur/15-S-Spoede-Rd-63141/home/93472927","MARIS","19083934","N","Y",38.654431,-90.415832,2020,2127
"New Construction Plan",NA,"Single Family Residential","The Denali II","Saint Charles","MO","63301",444000,4,2.5,"Villages at Sandfort Farm",3614,NA,NA,NA,123,NA,"Active","","","http://www.redfin.com/MO/Saint-Charles/Villages-at-Sandfort-Farm/The-Denali-II/home/147998443","NewHomeSource.com","Plan-61562012","N","Y",38.7980405,-90.5517474,2018,1592
"MLS Listing",NA,"Single Family Residential","7129 Washington Ave","University City","MO","63130",524000,4,3,"University City",2442,9601,1918,92,215,NA,"Active","","","http://www.redfin.com/MO/University-City/7129-Washington-Ave-63130/home/93469206","MARIS","18076901","N","Y",38.6562459,-90.3176083,2018,1062
"For-Sale-by-Owner Listing",NA,"Single Family Residential","206 Perry St","St Charles","MO","63301",187900,2,1,"Saint Charles",936,6000,1930,316,201,NA,"Active","","","http://www.redfin.com/MO/St-Charles/206-Perry-St-63301/home/103350613","Fizber.com","4951152","N","Y",38.7771396,-90.485428,2018,1484
"MLS Listing",NA,"Single Family Residential","17 Upper Ladue Rd","Ladue","MO","63124",2099000,4,5,"Ladue",4824,87120,NA,83,435,33,"Active","","","http://www.redfin.com/MO/St-Louis/17-Upper-Ladue-Rd-63124/home/93626936","MARIS","19080086","N","Y",38.6456799,-90.3900845,2020,1704
"MLS Listing",NA,"Single Family Residential","35 Magnolia","Ladue","MO","63124",989900,5,5,"Ladue",2564,7200,NA,4,386,NA,"Active","","","http://www.redfin.com/MO/St-Louis/35-Magnolia-Dr-63124/home/93480457","MARIS","20007572","N","Y",38.6360561,-90.3876963,2020,1824
"MLS Listing",NA,"Single Family Residential","4958 Holly Hills Ave","St Louis","MO","63109",235000,3,1,"South City",1709,4835,1925,43,138,NA,"Active","","","http://www.redfin.com/MO/St-Louis/4958-Holly-Hills-Ave-63109/home/93771109","MARIS","18090896","N","Y",38.576908,-90.285389,2018,689
"MLS Listing",NA,"Single Family Residential","2657 Accomac","St Louis","MO","63104",165000,3,3,"Central East",2108,3049,1912,366,78,NA,"Active","","","http://www.redfin.com/MO/St-Louis/2657-Accomac-St-63104/home/92735728","MARIS","18000353","N","Y",38.6097672,-90.2242647,2018,507
"MLS Listing",NA,"Single Family Residential","6410 Saint Louis Ave","St Louis","MO","63121",8900,2,1,"Normandy",1175,3441,1924,34,8,NA,"Active","","","http://www.redfin.com/MO/St-Louis/6410-St-Louis-Ave-63121/home/93444860","MARIS","19090961","N","Y",38.6854119,-90.2881079,2020,1902
"MLS Listing",NA,"Condo/Co-op","925 S Hanley Rd Unit F","St Louis","MO","63105",175000,2,1,"Clayton",1080,1437,1940,7,162,364,"Active","","","http://www.redfin.com/MO/St-Louis/925-S-Hanley-Rd-63105/unit-F/home/93479427","MARIS","20002477","N","Y",38.6383689,-90.3360309,2020,1619
"MLS Listing",NA,"Single Family Residential","5239 Shaw Ave","St Louis","MO","63110",459000,3,3,"South City",1915,5097,NA,143,240,NA,"Active","","","http://www.redfin.com/MO/St-Louis/5239-Shaw-Ave-63110/home/93727992","MARIS","18065227","N","Y",38.618381,-90.273768,2018,1004
"MLS Listing",NA,"Multi-Family (2-4 Unit)","4930 Wise Ave","St Louis","MO","63110",249000,4,4,"South City",NA,5489,1919,140,NA,NA,"Active","","","http://www.redfin.com/MO/St-Louis/4930-Wise-Ave-63110/home/93726650","MARIS","18065744","N","Y",38.626215,-90.266225,2018,751
"MLS Listing",NA,"Single Family Residential","7015 Waterman Ave","St Louis","MO","63130",529500,3,3,"University City",2296,5881,1920,101,231,NA,"Active","","","http://www.redfin.com/MO/University-City/7015-Waterman-Ave-63130/home/62731683","MARIS","18076695","N","Y",38.6534006,-90.3153124,2018,1065
"MLS Listing",NA,"Single Family Residential","602 N 6th St","St Charles","MO","63301",350000,4,4,"St. Charles",2898,10237,1880,2,121,NA,"Active","","","http://www.redfin.com/MO/St-Charles/602-N-6th-St-63301/home/62753808","MARIS","19000020","N","Y",38.788176,-90.4856493,2018,1247
"MLS Listing",NA,"Multi-Family (2-4 Unit)","3657 Gasconade","St Louis","MO","63116",69900,2,2,"South City",1866,4269,1925,24,37,NA,"Active","","","http://www.redfin.com/MO/St-Louis/3657-Gasconade-St-63116/home/93704513","MARIS","18093929","N","Y",38.5828778,-90.2466538,2018,146
"New Construction Plan",NA,"Single Family Residential","The Charleston II - 3 Car Garage","Saint Charles","MO","63301",349900,4,2.5,"Charlestowne Crossing",2850,NA,NA,NA,123,NA,"Active","","","http://www.redfin.com/MO/Saint-Charles/Charlestowne-Crossing/The-Charleston-II-3-Car-Garage/home/144901407","NewHomeSource.com","Plan-71477292","N","Y",38.827639,-90.48084,2018,1543
"MLS Listing",NA,"Single Family Residential","8347 Cornell Ave","University City","MO","63132",675000,6,5,"University City",3817,22216,1950,7,177,NA,"Active","","","http://www.redfin.com/MO/St-Louis/8347-Cornell-Ave-63132/home/93459626","MARIS","20006308","N","Y",38.6629812,-90.3525152,2020,1848
"MLS Listing",NA,"Vacant Land","5122 Hilda Ave","St Louis","MO","63123",39900,NA,NA,"Bayless",NA,6534,NA,612,NA,NA,"Active","","","http://www.redfin.com/MO/Affton/5122-Hilda-Ave-63123/home/113846583","MARIS","17035587","N","Y",38.560939,-90.3065079,2018,75
"MLS Listing",NA,"Single Family Residential","4749 Nebraska Ave","St Louis","MO","63111",11900,2,1,"South City",1736,3920,1909,35,7,NA,"Active","","","http://www.redfin.com/MO/St-Louis/4749-Nebraska-Ave-63111/home/93707003","MARIS","18092292","N","Y",38.5696491,-90.2376324,2018,15
"MLS Listing",NA,"Single Family Residential","634 Lee Ave","Webster Groves","MO","63119",520000,4,3,"Webster Groves",2285,16901,1951,25,228,NA,"Active","","","http://www.redfin.com/MO/Webster-Groves/634-Lee-Ave-63119/home/93511027","MARIS","18092596","N","Y",38.598704,-90.3724019,2018,1060
"MLS Listing",NA,"Single Family Residential","139 W Kirkham Ave","Webster Groves","MO","63119",219500,2,3,"Webster Groves",1163,6098,1926,140,189,NA,"Active","","","http://www.redfin.com/MO/Webster-Groves/139-W-Kirkham-Ave-63119/home/84926586","MARIS","18066515","N","Y",38.597173,-90.3600703,2018,663
"MLS Listing",NA,"Single Family Residential","5843 Clemens Ave","St Louis","MO","63112",55000,3,2,"Central West",2184,11108,1895,109,25,NA,"Active","","","http://www.redfin.com/MO/St-Louis/5843-Clemens-Ave-63112/home/93739303","MARIS","19078996","N","Y",38.6569524,-90.2879611,2020,1949
"For-Sale-by-Owner Listing",NA,"Single Family Residential","3616 Holt Ave","St. Louis","MO","63116",157400,3,1,"Saint Louis",974,4633,1939,173,162,NA,"Active","","","http://www.redfin.com/MO/St-Louis/3616-Holt-Ave-63116/home/93765699","Fizber.com","4971067","N","Y",38.591938,-90.2577776,2018,479
"MLS Listing",NA,"Single Family Residential","2909 Indiana Ave","St Louis","MO","63118",374900,3,3,"Central East",2530,NA,NA,147,148,17,"Active","January-6-2019 1:00 PM","January-6-2019 3:00 PM","http://www.redfin.com/MO/St-Louis/2909-Indiana-Ave-63118/home/144767065","MARIS","18064387","N","Y",38.6004396,-90.2230229,2018,933
"MLS Listing",NA,"Single Family Residential","7740 Jerome Ave","St Louis","MO","63143",95000,2,2,"Maplewood-Rchmnd Hts",735,7013,1913,27,129,NA,"Active","","","http://www.redfin.com/MO/Maplewood/7740-Jerome-Ave-63143/home/62694484","MARIS","18093763","N","Y",38.6172323,-90.3282457,2018,218
"MLS Listing",NA,"Multi-Family (5+ Unit)","5803 Cabanne Ave","St Louis","MO","63112",875000,NA,NA,"Central West",26664,32304,1924,21,33,NA,"Active","","","http://www.redfin.com/MO/St-Louis/5803-Cabanne-Ave-63112/home/93723949","MARIS","18094594","N","Y",38.6592879,-90.286346,2018,1158
"MLS Listing",NA,"Single Family Residential","1 Tbb-hamilton At Provence","St Charles","MO","63301",276900,3,2,"St. Charles",1758,NA,NA,1154,158,27,"Active","","","http://www.redfin.com/MO/Saint-Charles/300-1st-Capitol-Dr-63301/home/147123206","MARIS","15058739","N","Y",38.780599,-90.483787,2018,1470
"MLS Listing",NA,"Single Family Residential","111 Saint George","St Louis","MO","63119",184900,3,2,"Webster Groves",1064,8015,1969,43,174,NA,"Active","","","http://www.redfin.com/MO/St-Louis/111-Saint-George-63119/home/148184339","MARIS","18081671","N","Y",38.574205,-90.356289,2018,577
"MLS Listing",NA,"Single Family Residential","7361 Teasdale Ave","University City","MO","63130",575000,4,5,"University City",2674,11500,1935,185,215,NA,"Active","","","http://www.redfin.com/MO/University-City/7361-Teasdale-Ave-63130/home/93468926","MARIS","18052996","N","Y",38.6578369,-90.3282395,2018,1088
"MLS Listing",NA,"Single Family Residential","5524 Dewey Ave","St Louis","MO","63116",39900,4,1,"South City",1173,4356,1925,20,34,NA,"Active","","","http://www.redfin.com/MO/St-Louis/5524-Dewey-Ave-63116/home/93761613","MARIS","18094802","N","Y",38.5707463,-90.256855,2018,77
"MLS Listing",NA,"Single Family Residential","52 Berkshire Dr","St Louis","MO","63117",748800,4,4,"Ladue",2910,29272,1941,20,257,NA,"Active","","","http://www.redfin.com/MO/Richmond-Heights/52-Berkshire-Dr-63117/home/93489823","MARIS","20000044","N","Y",38.6343965,-90.349942,2020,1654
"MLS Listing",NA,"Single Family Residential","1 Tbb Davinci 1.5 At Provence","St Charles","MO","63301",305900,4,3,"St. Charles",2283,NA,NA,106,134,27,"Active","","","http://www.redfin.com/MO/St-Charles/1-Tbb-Davinci-1-5-At-Provence-63301/home/147123182","MARIS","18075208","N","Y",38.803033,-90.485799,2018,1397
"New Construction Plan",NA,"Single Family Residential","Bristol","Saint Charles","MO","63301",336900,4,2.5,"The Villages at Sandfort Farm",2754,NA,NA,NA,122,NA,"Active","","","http://www.redfin.com/MO/St-Charles/The-Villages-at-Sandfort-Farm/Bristol/home/148310762","NewHomeSource.com","Plan-61573769","N","Y",38.7956412,-90.5562885,2018,1576
"MLS Listing",NA,"Single Family Residential","11 Spoede Ln","St Louis","MO","63141",2175000,4,6,"Ladue",5400,36155,NA,126,403,NA,"Active","","","http://www.redfin.com/MO/Creve-Coeur/11-Spoede-Ln-63141/home/93473307","MARIS","19070396","N","Y",38.6600016,-90.4180963,2020,1744
"MLS Listing",NA,"Single Family Residential","3230 S Canal Way","St Charles","MO","63301",435000,5,4,"Orchard Farm",2638,4792,2006,27,165,77,"Active","","","http://www.redfin.com/MO/St-Charles/3230-S-Canal-Way-63301/home/103251949","MARIS","18093766","N","Y",38.8381346,-90.4983767,2018,1290
"MLS Listing",NA,"Condo/Co-op","4501 Lindell Unit 8B","St Louis","MO","63108",340000,1,2,"Central West",1331,NA,1963,36,255,879,"Active","","","http://www.redfin.com/MO/St-Louis/4501-Lindell-Blvd-63108/unit-8B/home/93724559","MARIS","18092060","N","Y",38.642951,-90.2581168,2018,894
"MLS Listing",NA,"Multi-Family (2-4 Unit)","5705 Julian Ave","St Louis","MO","63112",48900,2,1,"Central West",2916,3964,1908,87,17,NA,"Active","","","http://www.redfin.com/MO/St-Louis/5705-Julian-Ave-63112/home/93722218","MARIS","18070032","N","Y",38.66487,-90.282567,2018,96
"MLS Listing",NA,"Single Family Residential","7808 Leona St","St Louis","MO","63123",119900,3,1,"South City",960,6273,1950,84,125,NA,"Active","","","http://www.redfin.com/MO/St-Louis/7808-Leona-St-63123/home/93784408","MARIS","18081751","N","Y",38.5559012,-90.2797502,2018,299
"MLS Listing",NA,"Single Family Residential","805 Treadway Ave","St Charles","MO","63301",239900,4,3,"St. Charles",1426,11326,1972,16,168,NA,"Active","","","http://www.redfin.com/MO/St-Charles/805-Treadway-Ave-63301/home/103350196","MARIS","18095181","N","Y",38.7918693,-90.5203735,2018,1269
"MLS Listing",NA,"Single Family Residential","2349 Chemin Ave","St Charles","MO","63301",325000,3,2,"St. Charles",1734,9148,NA,281,187,27,"Active","","","http://www.redfin.com/MO/St-Charles/2349-Chemin-Ave-63301/home/143243509","MARIS","18020983","N","Y",38.804858,-90.4862797,2018,1444
"MLS Listing",NA,"Single Family Residential","7361 Olive Blvd","University City","MO","63130",135000,2,1,"University City",1460,8398,1920,52,92,NA,"Active","","","http://www.redfin.com/MO/University-City/7361-Olive-Blvd-63130/home/93458389","MARIS","19089026","N","Y",38.6715784,-90.3287289,2020,1913
"MLS Listing",NA,"Single Family Residential","4734 Adkins Ave","St Louis","MO","63116",55586,2,1,"South City",NA,3485,1939,485,NA,NA,"Active","","","http://www.redfin.com/MO/St-Louis/4734-Adkins-Ave-63116/home/93761284","MARIS","17071154","N","Y",38.5804133,-90.2637464,2018,115
"MLS Listing",NA,"Single Family Residential","515 High Mdw","Frontenac","MO","63131",710000,4,4,"Kirkwood",2750,42558,1963,9,258,NA,"Active","","","http://www.redfin.com/MO/Frontenac/515-High-Meadow-Rd-63131/home/93501756","MARIS","20002221","N","Y",38.6159,-90.4174151,2020,1631
"MLS Listing",NA,"Single Family Residential","6024 Maple Ave","St Louis","MO","63112",245000,3,2,"Central West",2378,6882,2004,102,103,NA,"Active","","","http://www.redfin.com/MO/St-Louis/6024-Maple-Ave-63112/home/93672169","MARIS","19080313","N","Y",38.6614432,-90.2930646,2020,1944
"MLS Listing",NA,"Single Family Residential","4228 E Page","St Louis","MO","63113",7000,3,1,"North",1408,4343,1897,208,5,NA,"Active","","","http://www.redfin.com/MO/St-Louis/4228-E-Page-Blvd-63113/home/62732863","MARIS","18046972","N","Y",38.6517935,-90.2414199,2018,6
"MLS Listing",NA,"Single Family Residential","543 Oakhaven Ln","St Louis","MO","63141",1240000,6,7,"Ladue",4983,23087,2011,7,249,NA,"Active","","","http://www.redfin.com/MO/Creve-Coeur/543-Oakhaven-Ln-63141/home/93463439","MARIS","20006692","N","Y",38.6683122,-90.4239456,2020,2127
"MLS Listing",NA,"Single Family Residential","4711 Lewis Pl","St Louis","MO","63113",60000,2,1,"North",1128,7057,1923,323,53,NA,"Active","","","http://www.redfin.com/MO/St-Louis/4711-Lewis-Pl-63113/home/93739453","MARIS","18009670","N","Y",38.6551846,-90.2553481,2018,125
"MLS Listing",NA,"Single Family Residential","4 Country Fair","Creve Coeur","MO","63141",455000,4,3,"Ladue",1758,16901,1956,267,259,NA,"Active","","","http://www.redfin.com/MO/Creve-Coeur/4-Country-Fair-Ln-63141/home/93472527","MARIS","18025121","N","Y",38.656488,-90.407902,2018,1003
"MLS Listing",NA,"Single Family Residential","12 Lynne Ct","Olivette","MO","63132",1195000,5,5,"Ladue",3808,21780,NA,140,314,NA,"Active","","","http://www.redfin.com/MO/Olivette/12-Lynne-Ct-63132/home/146729473","MARIS","18066282","N","Y",38.667282,-90.3835821,2018,1187
"MLS Listing",NA,"Single Family Residential","26 Macarthur Ct","St Charles","MO","63304",434900,3,2,"Francis Howell Cntrl",2293,9148,NA,107,190,21,"Active","","","http://www.redfin.com/MO/Unknown/26-MacArthur-Ct-63304/home/147114876","MARIS","18075083","N","Y",38.744316,-90.62287,2018,1399
"MLS Listing",NA,"Single Family Residential","15 Kings Lynn","St Louis","MO","63132",520000,4,4,"Ladue",2160,16814,1951,55,241,14,"Active","","","http://www.redfin.com/MO/Olivette/15-Kings-Lynn-63132/home/62702105","MARIS","18087994","N","Y",38.664553,-90.367338,2018,1043
"MLS Listing",NA,"Single Family Residential","2630 Oregon Ave","St Louis","MO","63118",74000,2,1,"Central East",879,3136,1904,301,84,NA,"Active","","","http://www.redfin.com/MO/St-Louis/2630-Oregon-Ave-63118/home/93699426","MARIS","18017150","N","Y",38.605552,-90.2284279,2018,160
"MLS Listing",NA,"Single Family Residential","7718 Page Ave","St Louis","MO","63133",57000,2,1,"Normandy",972,7492,1927,11,59,NA,"Active","","","http://www.redfin.com/MO/St-Louis/7718-Page-Ave-63133/home/93445869","MARIS","20006119","N","Y",38.6803645,-90.3237645,2020,1859
"MLS Listing",NA,"Vacant Land","10166 Winding Ridge Rd","Ladue","MO","63124",1250000,NA,NA,"Ladue",NA,78408,NA,98,NA,NA,"Active","","","http://www.redfin.com/MO/St-Louis/10166-Winding-Ridge-Rd-63124/home/93490606","MARIS","18076490","N","Y",38.6278958,-90.4030388,2018,1191
"MLS Listing",NA,"Single Family Residential","57 Pricewoods","St Louis","MO","63132",320000,3,3,"Ladue",1800,12589,1960,118,178,21,"Active","","","http://www.redfin.com/MO/Olivette/57-Pricewoods-Ln-63132/home/93461720","MARIS","18072938","N","Y",38.665107,-90.365453,2018,863
"MLS Listing",NA,"Vacant Land","8694 W Kingsbury Ave","St Louis","MO","63124",200000,NA,NA,"University City",NA,9365,NA,86,NA,NA,"Active","","","http://www.redfin.com/MO/St-Louis/8694-W-Kingsbury-Ave-63124/home/62686557","MARIS","19079813","N","Y",38.6583678,-90.3611917,2020,1708
"For-Sale-by-Owner Listing",NA,"Single Family Residential","7248 Gravois Ave","St. Louis","MO","63116",200000,1,1,"Saint Louis",3400,3400,1995,265,59,NA,"Active","","","http://www.redfin.com/MO/St-Louis/7248-Gravois-Ave-63116/home/145310748","Fizber.com","4957662","N","Y",38.564913,-90.292589,2018,637
"MLS Listing",NA,"Single Family Residential","6104 Vetter","St Louis","MO","63120",29900,4,1,"Normandy",950,7667,NA,34,31,NA,"Active","","","http://www.redfin.com/MO/St-Louis/6104-Vetter-Pl-63120/home/62698832","MARIS","19091231","N","Y",38.6926075,-90.275008,2020,1898
"MLS Listing",NA,"Single Family Residential","754 Brownell Ave","St Louis","MO","63122",399900,3,3,"Kirkwood",1846,10019,1938,31,217,NA,"Active","January-6-2019 1:00 PM","January-6-2019 3:00 PM","http://www.redfin.com/MO/St-Louis/754-Brownell-Ave-63122/home/93529335","MARIS","18092837","N","Y",38.5934286,-90.3900477,2018,957
"MLS Listing",NA,"Single Family Residential","5038 5040 Enright Ave","St Louis","MO","63108",90500,6,2,"Central West",1200,5097,1904,116,75,NA,"Active","","","http://www.redfin.com/MO/St-Louis/5040-Enright-Ave-63108/unit-2/home/147006927","MARIS","18071554","N","Y",38.6526989,-90.2649811,2018,203
"New Construction Plan",NA,"Single Family Residential","The Huntington","Saint Louis","MO","63141",1873200,4,5,"Conway Estates",4683,NA,NA,NA,400,NA,"Active","","","http://www.redfin.com/MO/St-Louis/Conway-Estates/The-Huntington/home/169955256","NewHomeSource.com","Plan-101570853","N","Y",38.6493304,-90.4972698,2020,2127
"MLS Listing",NA,"Single Family Residential","22 Flamingo","Crestwood","MO","63123",229000,3,3,"Lindbergh",1360,11021,1952,151,168,NA,"Active","","","http://www.redfin.com/MO/St-Louis/22-Flamingo-Dr-63123/home/93562902","MARIS","18049131","N","Y",38.5637516,-90.3605483,2018,709
"MLS Listing",NA,"Single Family Residential","5072 Cates Ave","St Louis","MO","63108",28000,0,NA,"Central West",1900,5314,NA,52,15,NA,"Active","","","http://www.redfin.com/MO/St-Louis/5072-Cates-Ave-63108/home/85688089","MARIS","18089584","N","Y",38.655047,-90.265678,2018,52
"New Construction Plan",NA,"Single Family Residential","Oakmont","Saint Charles","MO","63303",231604,3,2,"Talbridge",NA,NA,NA,NA,NA,NA,"Active","","","http://www.redfin.com/MO/Saint-Charles/Talbridge/Oakmont/home/108851015","NewHomeSource.com","Plan-70822031","N","Y",38.7602188,-90.5093707,2018,1508
"MLS Listing",NA,"Vacant Land","12 Radnor Rd","Huntleigh","MO","63131",1100000,NA,NA,"Kirkwood",NA,140699,NA,11,NA,NA,"Active","","","http://www.redfin.com/MO/St-Louis/2535-S-Lindbergh-Blvd-63131/home/168281848","MARIS","20002337","N","Y",38.6169923,-90.4061325,2020,1633
"New Construction Plan",NA,"Single Family Residential","The Montgomery - 3 Car Garage","Saint Charles","MO","63301",242900,3,2,"Charlestowne Place",1498,NA,NA,NA,162,NA,"Active","","","http://www.redfin.com/MO/Saint-Charles/Charlestowne-Place/The-Montgomery-3-Car-Garage/home/144901420","NewHomeSource.com","Plan-71556600","N","Y",38.827639,-90.48084,2018,1550
"MLS Listing",NA,"Single Family Residential","5716 Westminster Pl","St Louis","MO","63112",222500,3,3,"Central West",1528,6621,1981,38,146,28,"Active","","","http://www.redfin.com/MO/St-Louis/5716-Westminster-Pl-63112/home/62738152","MARIS","18091565","N","Y",38.652099,-90.285335,2018,669
"MLS Listing",NA,"Single Family Residential","9506 Arban Dr","St Louis","MO","63126",229900,3,2,"Lindbergh",1688,7884,1955,48,136,NA,"Active","","","http://www.redfin.com/MO/St-Louis/9506-Arban-Dr-63126/home/93561965","MARIS","18089717","N","Y",38.5543667,-90.377447,2018,683
"New Construction Plan",NA,"Single Family Residential","The Denali II","Saint Charles","MO","63304",527990,4,2.5,"Bluffs at Windcastle",3614,NA,NA,NA,146,NA,"Active","","","http://www.redfin.com/MO/Weldon-Spring/Bluffs-at-Windcastle/The-Denali-II/home/148131013","NewHomeSource.com","Plan-61458372","N","Y",38.71098,-90.607679,2018,1588
"MLS Listing",NA,"Single Family Residential","4336 Beck Ave","St Louis","MO","63116",64900,3,1,"South City",1600,5314,1891,80,41,NA,"Active","","","http://www.redfin.com/MO/St-Louis/4336-Beck-Ave-63116/home/93729692","MARIS","18082304","N","Y",38.5917283,-90.2645166,2018,133
"New Construction Plan",NA,"Single Family Residential","Edison","Saint Charles","MO","63301",295900,4,2.5,"Provence, The Villages of",2368,NA,NA,NA,125,NA,"Active","","","http://www.redfin.com/MO/St-Charles/Provence-The-Villages-of/Edison/home/148442949","NewHomeSource.com","Plan-71578507","N","Y",38.804399,-90.485759,2018,1553
"MLS Listing",NA,"Condo/Co-op","4101 Laclede Ave #316","St Louis","MO","63108",465000,2,2,"Central West",1568,33236,NA,328,297,564,"Active","","","http://www.redfin.com/MO/St-Louis/4101-Laclede-Ave-63108/unit-316/home/143940047","MARIS","17093759","N","Y",38.637596,-90.246949,2018,1007
"MLS Listing",NA,"Single Family Residential","1303 S Boyle Ave","St Louis","MO","63110",375000,3,3,"South City",1988,NA,2017,48,189,NA,"Active","","","http://www.redfin.com/MO/St-Louis/1303-S-Boyle-Ave-63110/home/146873923","MARIS","18090358","N","Y",38.625417,-90.2537866,2018,936
"MLS Listing",NA,"Single Family Residential","5119 Mccausland Ave","St Louis","MO","63109",239900,2,2,"South City",1061,8364,1952,85,226,NA,"Active","","","http://www.redfin.com/MO/St-Louis/5119-McCausland-Ave-63109/home/93781549","MARIS","18081263","N","Y",38.5846866,-90.3104649,2018,727
"MLS Listing",NA,"Single Family Residential","412 Venneman Ave","St Louis","MO","63122",309999,2,3,"Kirkwood",1056,6752,1929,48,294,NA,"Active","","","http://www.redfin.com/MO/St-Louis/412-Venneman-Ave-63122/home/93529127","MARIS","18090695","N","Y",38.5899474,-90.3889438,2018,851
"MLS Listing",NA,"Single Family Residential","125 W Thornton Ave","St Louis","MO","63119",515000,4,3,"Webster Groves",2600,9801,NA,325,198,NA,"Active","January-6-2019 1:00 PM","January-6-2019 4:00 PM","http://www.redfin.com/MO/Webster-Groves/125-W-Thornton-Ave-63119/home/93509723","MARIS","18007872","N","Y",38.6048836,-90.3587834,2018,1041
